@Sonygps/ver5.0/wgs-84/20200105112644.000/
@Sonygpsoption/0/20200105112650.000/20200105112650.845/
$GPGGA,112650.845,6735.8475,N,3345.3059,E,1,0,,,M,,M,,*4D
$GPRMC,112650.845,A,6735.8475,N,3345.3059,E,4.57,,050120,,,A*4F
$GPGGA,112651.850,6735.8480,N,3345.3101,E,1,0,,,M,,M,,*4E
$GPRMC,112651.850,A,6735.8480,N,3345.3101,E,5.50,,050120,,,A*4A
$GPGGA,112652.847,6735.8524,N,3345.3116,E,1,0,,,M,,M,,*42
$GPRMC,112652.847,A,6735.8524,N,3345.3116,E,6.36,,050120,,,A*45
$GPGGA,112653.852,6735.8540,N,3345.3129,E,1,0,,,M,,M,,*49
$GPRMC,112653.852,A,6735.8540,N,3345.3129,E,6.63,,050120,,,A*4E
$GPGGA,112654.852,6735.8558,N,3345.3166,E,1,0,,,M,,M,,*4C
$GPRMC,112654.852,A,6735.8558,N,3345.3166,E,7.34,,050120,,,A*48
$GPGGA,112655.834,6735.8670,N,3345.3164,E,1,0,,,M,,M,,*46
$GPRMC,112655.834,A,6735.8670,N,3345.3164,E,6.92,,050120,,,A*4F
$GPGGA,112656.828,6735.8710,N,3345.3168,E,1,0,,,M,,M,,*43
$GPRMC,112656.828,A,6735.8710,N,3345.3168,E,6.75,,050120,,,A*43
$GPGGA,112657.828,6735.8707,N,3345.3172,E,1,0,,,M,,M,,*4F
$GPRMC,112657.828,A,6735.8707,N,3345.3172,E,6.18,,050120,,,A*44
$GPGGA,112658.825,6735.8716,N,3345.3171,E,1,0,,,M,,M,,*4E
$GPRMC,112658.825,A,6735.8716,N,3345.3171,E,5.99,,050120,,,A*4F
$GPGGA,112659.827,6735.8718,N,3345.3188,E,1,0,,,M,,M,,*45
$GPRMC,112659.827,A,6735.8718,N,3345.3188,E,6.14,,050120,,,A*42
$GPGGA,112700.826,6735.8726,N,3345.3207,E,1,0,,,M,,M,,*40
$GPRMC,112700.826,A,6735.8726,N,3345.3207,E,5.53,,050120,,,A*47
$GPGGA,112701.823,6735.8743,N,3345.3222,E,1,0,,,M,,M,,*40
$GPRMC,112701.823,A,6735.8743,N,3345.3222,E,6.25,,050120,,,A*45
$GPGGA,112703.000,6735.8757,N,3345.3247,E,1,0,,,M,,M,,*4D
$GPRMC,112703.000,A,6735.8757,N,3345.3247,E,6.38,,050120,,,A*44
$GPGGA,112704.000,6735.8772,N,3345.3256,E,1,0,,,M,,M,,*4D
$GPRMC,112704.000,A,6735.8772,N,3345.3256,E,5.68,,050120,,,A*42
$GPGGA,112705.000,6735.8785,N,3345.3274,E,1,0,,,M,,M,,*44
$GPRMC,112705.000,A,6735.8785,N,3345.3274,E,5.92,,050120,,,A*4E
$GPGGA,112706.000,6735.8798,N,3345.3296,E,1,0,,,M,,M,,*47
$GPRMC,112706.000,A,6735.8798,N,3345.3296,E,6.33,,050120,,,A*45
$GPGGA,112707.000,6735.8814,N,3345.3318,E,1,0,,,M,,M,,*4A
$GPRMC,112707.000,A,6735.8814,N,3345.3318,E,6.17,,050120,,,A*4E
$GPGGA,112708.000,6735.8833,N,3345.3335,E,1,0,,,M,,M,,*4F
$GPRMC,112708.000,A,6735.8833,N,3345.3335,E,6.78,,050120,,,A*42
$GPGGA,112709.000,6735.8852,N,3345.3356,E,1,0,,,M,,M,,*4C
$GPRMC,112709.000,A,6735.8852,N,3345.3356,E,6.82,,050120,,,A*44
$GPGGA,112710.000,6735.8868,N,3345.3380,E,1,0,,,M,,M,,*46
$GPRMC,112710.000,A,6735.8868,N,3345.3380,E,6.58,,050120,,,A*49
$GPGGA,112711.000,6735.8883,N,3345.3406,E,1,0,,,M,,M,,*4B
$GPRMC,112711.000,A,6735.8883,N,3345.3406,E,6.79,,050120,,,A*47
$GPGGA,112712.000,6735.8899,N,3345.3428,E,1,0,,,M,,M,,*4F
$GPRMC,112712.000,A,6735.8899,N,3345.3428,E,6.81,,050120,,,A*44
$GPGGA,112713.000,6735.8913,N,3345.3450,E,1,0,,,M,,M,,*42
$GPRMC,112713.000,A,6735.8913,N,3345.3450,E,6.07,,050120,,,A*47
$GPGGA,112714.000,6735.8924,N,3345.3471,E,1,0,,,M,,M,,*42
$GPRMC,112714.000,A,6735.8924,N,3345.3471,E,6.07,,050120,,,A*47
$GPGGA,112715.000,6735.8935,N,3345.3496,E,1,0,,,M,,M,,*4A
$GPRMC,112715.000,A,6735.8935,N,3345.3496,E,6.30,,050120,,,A*4B
$GPGGA,112716.000,6735.8948,N,3345.3518,E,1,0,,,M,,M,,*44
$GPRMC,112716.000,A,6735.8948,N,3345.3518,E,6.03,,050120,,,A*45
$GPGGA,112717.000,6735.8960,N,3345.3540,E,1,0,,,M,,M,,*42
$GPRMC,112717.000,A,6735.8960,N,3345.3540,E,5.56,,050120,,,A*40
$GPGGA,112718.000,6735.8971,N,3345.3564,E,1,0,,,M,,M,,*4B
$GPRMC,112718.000,A,6735.8971,N,3345.3564,E,5.92,,050120,,,A*41
$GPGGA,112719.000,6735.8984,N,3345.3589,E,1,0,,,M,,M,,*43
$GPRMC,112719.000,A,6735.8984,N,3345.3589,E,5.69,,050120,,,A*4D
$GPGGA,112720.000,6735.8998,N,3345.3613,E,1,0,,,M,,M,,*44
$GPRMC,112720.000,A,6735.8998,N,3345.3613,E,6.53,,050120,,,A*40
$GPGGA,112721.000,6735.9012,N,3345.3637,E,1,0,,,M,,M,,*49
$GPRMC,112721.000,A,6735.9012,N,3345.3637,E,6.50,,050120,,,A*4E
$GPGGA,112722.000,6735.9026,N,3345.3659,E,1,0,,,M,,M,,*45
$GPRMC,112722.000,A,6735.9026,N,3345.3659,E,6.22,,050120,,,A*47
$GPGGA,112723.000,6735.9041,N,3345.3679,E,1,0,,,M,,M,,*47
$GPRMC,112723.000,A,6735.9041,N,3345.3679,E,6.62,,050120,,,A*41
$GPGGA,112724.000,6735.9056,N,3345.3703,E,1,0,,,M,,M,,*4A
$GPRMC,112724.000,A,6735.9056,N,3345.3703,E,6.59,,050120,,,A*44
$GPGGA,112725.000,6735.9070,N,3345.3730,E,1,0,,,M,,M,,*4F
$GPRMC,112725.000,A,6735.9070,N,3345.3730,E,6.36,,050120,,,A*48
$GPGGA,112726.000,6735.9082,N,3345.3756,E,1,0,,,M,,M,,*41
$GPRMC,112726.000,A,6735.9082,N,3345.3756,E,6.28,,050120,,,A*49
$GPGGA,112727.000,6735.9095,N,3345.3779,E,1,0,,,M,,M,,*4B
$GPRMC,112727.000,A,6735.9095,N,3345.3779,E,5.79,,050120,,,A*44
$GPGGA,112728.000,6735.9108,N,3345.3803,E,1,0,,,M,,M,,*43
$GPRMC,112728.000,A,6735.9108,N,3345.3803,E,5.83,,050120,,,A*49
$GPGGA,112729.000,6735.9122,N,3345.3827,E,1,0,,,M,,M,,*4C
$GPRMC,112729.000,A,6735.9122,N,3345.3827,E,6.44,,050120,,,A*4E
$GPGGA,112730.000,6735.9138,N,3345.3847,E,1,0,,,M,,M,,*49
$GPRMC,112730.000,A,6735.9138,N,3345.3847,E,6.72,,050120,,,A*4E
$GPGGA,112731.000,6735.9153,N,3345.3872,E,1,0,,,M,,M,,*43
$GPRMC,112731.000,A,6735.9153,N,3345.3872,E,6.66,,050120,,,A*41
$GPGGA,112732.000,6735.9168,N,3345.3896,E,1,0,,,M,,M,,*42
$GPRMC,112732.000,A,6735.9168,N,3345.3896,E,6.86,,050120,,,A*4E
$GPGGA,112733.000,6735.9182,N,3345.3922,E,1,0,,,M,,M,,*49
$GPRMC,112733.000,A,6735.9182,N,3345.3922,E,6.81,,050120,,,A*42
$GPGGA,112734.000,6735.9197,N,3345.3940,E,1,0,,,M,,M,,*4E
$GPRMC,112734.000,A,6735.9197,N,3345.3940,E,6.30,,050120,,,A*4F
$GPGGA,112735.000,6735.9212,N,3345.3960,E,1,0,,,M,,M,,*43
$GPRMC,112735.000,A,6735.9212,N,3345.3960,E,6.56,,050120,,,A*42
$GPGGA,112736.000,6735.9228,N,3345.3983,E,1,0,,,M,,M,,*44
$GPRMC,112736.000,A,6735.9228,N,3345.3983,E,6.51,,050120,,,A*42
$GPGGA,112737.000,6735.9240,N,3345.4006,E,1,0,,,M,,M,,*48
$GPRMC,112737.000,A,6735.9240,N,3345.4006,E,6.04,,050120,,,A*4E
$GPGGA,112738.000,6735.9254,N,3345.4029,E,1,0,,,M,,M,,*4F
$GPRMC,112738.000,A,6735.9254,N,3345.4029,E,6.04,,050120,,,A*49
$GPGGA,112739.000,6735.9268,N,3345.4052,E,1,0,,,M,,M,,*4D
$GPRMC,112739.000,A,6735.9268,N,3345.4052,E,6.31,,050120,,,A*4D
$GPGGA,112740.000,6735.9282,N,3345.4074,E,1,0,,,M,,M,,*43
$GPRMC,112740.000,A,6735.9282,N,3345.4074,E,5.63,,050120,,,A*47
$GPGGA,112741.000,6735.9292,N,3345.4095,E,1,0,,,M,,M,,*4C
$GPRMC,112741.000,A,6735.9292,N,3345.4095,E,5.33,,050120,,,A*4D
$GPGGA,112742.000,6735.9301,N,3345.4117,E,1,0,,,M,,M,,*4F
$GPRMC,112742.000,A,6735.9301,N,3345.4117,E,5.37,,050120,,,A*4A
$GPGGA,112743.000,6735.9315,N,3345.4148,E,1,0,,,M,,M,,*41
$GPRMC,112743.000,A,6735.9315,N,3345.4148,E,6.33,,050120,,,A*43
$GPGGA,112744.000,6735.9325,N,3345.4174,E,1,0,,,M,,M,,*4A
$GPRMC,112744.000,A,6735.9325,N,3345.4174,E,5.13,,050120,,,A*49
$GPGGA,112745.000,6735.9335,N,3345.4200,E,1,0,,,M,,M,,*4A
$GPRMC,112745.000,A,6735.9335,N,3345.4200,E,5.98,,050120,,,A*4A
$GPGGA,112746.000,6735.9348,N,3345.4221,E,1,0,,,M,,M,,*40
$GPRMC,112746.000,A,6735.9348,N,3345.4221,E,6.32,,050120,,,A*43
$GPGGA,112747.000,6735.9359,N,3345.4247,E,1,0,,,M,,M,,*41
$GPRMC,112747.000,A,6735.9359,N,3345.4247,E,6.10,,050120,,,A*42
$GPGGA,112748.000,6735.9372,N,3345.4275,E,1,0,,,M,,M,,*46
$GPRMC,112748.000,A,6735.9372,N,3345.4275,E,6.57,,050120,,,A*46
$GPGGA,112749.000,6735.9385,N,3345.4303,E,1,0,,,M,,M,,*4F
$GPRMC,112749.000,A,6735.9385,N,3345.4303,E,5.77,,050120,,,A*4E
$GPGGA,112750.000,6735.9397,N,3345.4329,E,1,0,,,M,,M,,*4C
$GPRMC,112750.000,A,6735.9397,N,3345.4329,E,6.29,,050120,,,A*45
$GPGGA,112751.000,6735.9410,N,3345.4356,E,1,0,,,M,,M,,*4D
$GPRMC,112751.000,A,6735.9410,N,3345.4356,E,5.90,,050120,,,A*45
$GPGGA,112752.000,6735.9415,N,3345.4386,E,1,0,,,M,,M,,*46
$GPRMC,112752.000,A,6735.9415,N,3345.4386,E,5.73,,050120,,,A*43
$GPGGA,112753.000,6735.9428,N,3345.4419,E,1,0,,,M,,M,,*48
$GPRMC,112753.000,A,6735.9428,N,3345.4419,E,6.20,,050120,,,A*48
$GPGGA,112754.000,6735.9441,N,3345.4445,E,1,0,,,M,,M,,*49
$GPRMC,112754.000,A,6735.9441,N,3345.4445,E,6.22,,050120,,,A*4B
$GPGGA,112755.000,6735.9448,N,3345.4463,E,1,0,,,M,,M,,*45
$GPRMC,112755.000,A,6735.9448,N,3345.4463,E,6.17,,050120,,,A*41
$GPGGA,112756.000,6735.9462,N,3345.4491,E,1,0,,,M,,M,,*43
$GPRMC,112756.000,A,6735.9462,N,3345.4491,E,5.80,,050120,,,A*4A
$GPGGA,112757.000,6735.9468,N,3345.4522,E,1,0,,,M,,M,,*41
$GPRMC,112757.000,A,6735.9468,N,3345.4522,E,5.51,,050120,,,A*44
$GPGGA,112758.000,6735.9482,N,3345.4547,E,1,0,,,M,,M,,*49
$GPRMC,112758.000,A,6735.9482,N,3345.4547,E,6.31,,050120,,,A*49
$GPGGA,112759.000,6735.9495,N,3345.4566,E,1,0,,,M,,M,,*4D
$GPRMC,112759.000,A,6735.9495,N,3345.4566,E,3.52,,050120,,,A*4D
$GPGGA,112800.000,6735.9500,N,3345.4572,E,1,0,,,M,,M,,*46
$GPRMC,112800.000,A,6735.9500,N,3345.4572,E,0.03,,050120,,,A*41
$GPGGA,112801.000,6735.9500,N,3345.4570,E,1,0,,,M,,M,,*45
$GPRMC,112801.000,A,6735.9500,N,3345.4570,E,0.03,,050120,,,A*42
$GPGGA,112802.000,6735.9499,N,3345.4567,E,1,0,,,M,,M,,*41
$GPRMC,112802.000,A,6735.9499,N,3345.4567,E,0.02,,050120,,,A*47
$GPGGA,112803.000,6735.9499,N,3345.4566,E,1,0,,,M,,M,,*41
$GPRMC,112803.000,A,6735.9499,N,3345.4566,E,0.01,,050120,,,A*44
$GPGGA,112804.000,6735.9499,N,3345.4566,E,1,0,,,M,,M,,*46
$GPRMC,112804.000,A,6735.9499,N,3345.4566,E,0.01,,050120,,,A*43
$GPGGA,112805.000,6735.9498,N,3345.4565,E,1,0,,,M,,M,,*45
$GPRMC,112805.000,A,6735.9498,N,3345.4565,E,0.00,,050120,,,A*41
$GPGGA,112806.000,6735.9498,N,3345.4565,E,1,0,,,M,,M,,*46
$GPRMC,112806.000,A,6735.9498,N,3345.4565,E,0.00,,050120,,,A*42
$GPGGA,112807.000,6735.9498,N,3345.4565,E,1,0,,,M,,M,,*47
$GPRMC,112807.000,A,6735.9498,N,3345.4565,E,0.00,,050120,,,A*43
$GPGGA,112808.000,6735.9498,N,3345.4565,E,1,0,,,M,,M,,*48
$GPRMC,112808.000,A,6735.9498,N,3345.4565,E,0.00,,050120,,,A*4C
$GPGGA,112809.000,6735.9498,N,3345.4565,E,1,0,,,M,,M,,*49
$GPRMC,112809.000,A,6735.9498,N,3345.4565,E,0.00,,050120,,,A*4D
$GPGGA,112810.000,6735.9498,N,3345.4565,E,1,0,,,M,,M,,*41
$GPRMC,112810.000,A,6735.9498,N,3345.4565,E,0.00,,050120,,,A*45
$GPGGA,112811.000,6735.9498,N,3345.4565,E,1,0,,,M,,M,,*40
$GPRMC,112811.000,A,6735.9498,N,3345.4565,E,0.00,,050120,,,A*44
$GPGGA,112812.000,6735.9498,N,3345.4565,E,1,0,,,M,,M,,*43
$GPRMC,112812.000,A,6735.9498,N,3345.4565,E,0.00,,050120,,,A*47
$GPGGA,112813.000,6735.9498,N,3345.4565,E,1,0,,,M,,M,,*42
$GPRMC,112813.000,A,6735.9498,N,3345.4565,E,0.00,,050120,,,A*46
$GPGGA,112814.000,6735.9498,N,3345.4565,E,1,0,,,M,,M,,*45
$GPRMC,112814.000,A,6735.9498,N,3345.4565,E,0.00,,050120,,,A*41
$GPGGA,112815.000,6735.9498,N,3345.4565,E,1,0,,,M,,M,,*44
$GPRMC,112815.000,A,6735.9498,N,3345.4565,E,0.00,,050120,,,A*40
$GPGGA,112816.000,6735.9498,N,3345.4565,E,1,0,,,M,,M,,*47
$GPRMC,112816.000,A,6735.9498,N,3345.4565,E,0.00,,050120,,,A*43
$GPGGA,112817.000,6735.9498,N,3345.4565,E,1,0,,,M,,M,,*46
$GPRMC,112817.000,A,6735.9498,N,3345.4565,E,0.00,,050120,,,A*42
$GPGGA,112818.000,6735.9498,N,3345.4565,E,1,0,,,M,,M,,*49
$GPRMC,112818.000,A,6735.9498,N,3345.4565,E,0.00,,050120,,,A*4D
$GPGGA,112819.000,6735.9498,N,3345.4565,E,1,0,,,M,,M,,*48
$GPRMC,112819.000,A,6735.9498,N,3345.4565,E,0.00,,050120,,,A*4C
$GPGGA,112820.000,6735.9498,N,3345.4565,E,1,0,,,M,,M,,*42
$GPRMC,112820.000,A,6735.9498,N,3345.4565,E,0.00,,050120,,,A*46
$GPGGA,112821.000,6735.9500,N,3345.4571,E,1,0,,,M,,M,,*46
$GPRMC,112821.000,A,6735.9500,N,3345.4571,E,1.80,,050120,,,A*4B
$GPGGA,112822.000,6735.9504,N,3345.4579,E,1,0,,,M,,M,,*49
$GPRMC,112822.000,A,6735.9504,N,3345.4579,E,2.45,,050120,,,A*4E
$GPGGA,112823.000,6735.9517,N,3345.4593,E,1,0,,,M,,M,,*4E
$GPRMC,112823.000,A,6735.9517,N,3345.4593,E,3.37,,050120,,,A*4D
$GPGGA,112824.000,6735.9542,N,3345.4593,E,1,0,,,M,,M,,*49
$GPRMC,112824.000,A,6735.9542,N,3345.4593,E,5.03,,050120,,,A*4B
$GPGGA,112825.000,6735.9565,N,3345.4605,E,1,0,,,M,,M,,*41
$GPRMC,112825.000,A,6735.9565,N,3345.4605,E,5.76,,050120,,,A*41
$GPGGA,112826.000,6735.9582,N,3345.4619,E,1,0,,,M,,M,,*46
$GPRMC,112826.000,A,6735.9582,N,3345.4619,E,4.74,,050120,,,A*45
$GPGGA,112827.000,6735.9593,N,3345.4636,E,1,0,,,M,,M,,*4A
$GPRMC,112827.000,A,6735.9593,N,3345.4636,E,4.75,,050120,,,A*48
$GPGGA,112828.000,6735.9607,N,3345.4655,E,1,0,,,M,,M,,*4E
$GPRMC,112828.000,A,6735.9607,N,3345.4655,E,6.04,,050120,,,A*48
$GPGGA,112829.000,6735.9622,N,3345.4676,E,1,0,,,M,,M,,*49
$GPRMC,112829.000,A,6735.9622,N,3345.4676,E,6.24,,050120,,,A*4D
$GPGGA,112830.000,6735.9638,N,3345.4696,E,1,0,,,M,,M,,*44
$GPRMC,112830.000,A,6735.9638,N,3345.4696,E,5.80,,050120,,,A*4D
$GPGGA,112831.000,6735.9652,N,3345.4718,E,1,0,,,M,,M,,*4E
$GPRMC,112831.000,A,6735.9652,N,3345.4718,E,6.42,,050120,,,A*4A
$GPGGA,112832.000,6735.9669,N,3345.4744,E,1,0,,,M,,M,,*4C
$GPRMC,112832.000,A,6735.9669,N,3345.4744,E,6.41,,050120,,,A*4B
$GPGGA,112833.000,6735.9683,N,3345.4769,E,1,0,,,M,,M,,*46
$GPRMC,112833.000,A,6735.9683,N,3345.4769,E,6.46,,050120,,,A*46
$GPGGA,112834.000,6735.9699,N,3345.4797,E,1,0,,,M,,M,,*4B
$GPRMC,112834.000,A,6735.9699,N,3345.4797,E,6.48,,050120,,,A*45
$GPGGA,112835.000,6735.9713,N,3345.4826,E,1,0,,,M,,M,,*4C
$GPRMC,112835.000,A,6735.9713,N,3345.4826,E,6.42,,050120,,,A*48
$GPGGA,112836.000,6735.9731,N,3345.4854,E,1,0,,,M,,M,,*4A
$GPRMC,112836.000,A,6735.9731,N,3345.4854,E,6.34,,050120,,,A*4F
$GPGGA,112837.000,6735.9745,N,3345.4892,E,1,0,,,M,,M,,*42
$GPRMC,112837.000,A,6735.9745,N,3345.4892,E,6.76,,050120,,,A*41
$GPGGA,112838.000,6735.9761,N,3345.4920,E,1,0,,,M,,M,,*43
$GPRMC,112838.000,A,6735.9761,N,3345.4920,E,6.93,,050120,,,A*4B
$GPGGA,112839.000,6735.9776,N,3345.4951,E,1,0,,,M,,M,,*42
$GPRMC,112839.000,A,6735.9776,N,3345.4951,E,6.99,,050120,,,A*40
$GPGGA,112840.000,6735.9790,N,3345.4978,E,1,0,,,M,,M,,*4F
$GPRMC,112840.000,A,6735.9790,N,3345.4978,E,6.63,,050120,,,A*48
$GPGGA,112841.000,6735.9807,N,3345.5008,E,1,0,,,M,,M,,*40
$GPRMC,112841.000,A,6735.9807,N,3345.5008,E,6.47,,050120,,,A*41
$GPGGA,112842.000,6735.9818,N,3345.5036,E,1,0,,,M,,M,,*40
$GPRMC,112842.000,A,6735.9818,N,3345.5036,E,4.90,,050120,,,A*49
$GPGGA,112843.000,6735.9827,N,3345.5056,E,1,0,,,M,,M,,*4B
$GPRMC,112843.000,A,6735.9827,N,3345.5056,E,2.99,,050120,,,A*4D
$GPGGA,112844.000,6735.9829,N,3345.5067,E,1,0,,,M,,M,,*40
$GPRMC,112844.000,A,6735.9829,N,3345.5067,E,0.15,,050120,,,A*40
$GPGGA,112845.000,6735.9828,N,3345.5077,E,1,0,,,M,,M,,*41
$GPRMC,112845.000,A,6735.9828,N,3345.5077,E,0.21,,050120,,,A*46
$GPGGA,112846.000,6735.9821,N,3345.5085,E,1,0,,,M,,M,,*46
$GPRMC,112846.000,A,6735.9821,N,3345.5085,E,0.17,,050120,,,A*44
$GPGGA,112847.000,6735.9817,N,3345.5088,E,1,0,,,M,,M,,*4F
$GPRMC,112847.000,A,6735.9817,N,3345.5088,E,0.04,,050120,,,A*4F
$GPGGA,112848.000,6735.9815,N,3345.5083,E,1,0,,,M,,M,,*49
$GPRMC,112848.000,A,6735.9815,N,3345.5083,E,0.03,,050120,,,A*4E
$GPGGA,112849.000,6735.9815,N,3345.5079,E,1,0,,,M,,M,,*4D
$GPRMC,112849.000,A,6735.9815,N,3345.5079,E,0.01,,050120,,,A*48
$GPGGA,112850.000,6735.9815,N,3345.5079,E,1,0,,,M,,M,,*45
$GPRMC,112850.000,A,6735.9815,N,3345.5079,E,0.02,,050120,,,A*43
$GPGGA,112851.000,6735.9816,N,3345.5079,E,1,0,,,M,,M,,*47
$GPRMC,112851.000,A,6735.9816,N,3345.5079,E,0.00,,050120,,,A*43
$GPGGA,112852.000,6735.9816,N,3345.5079,E,1,0,,,M,,M,,*44
$GPRMC,112852.000,A,6735.9816,N,3345.5079,E,0.00,,050120,,,A*40
$GPGGA,112853.000,6735.9816,N,3345.5079,E,1,0,,,M,,M,,*45
$GPRMC,112853.000,A,6735.9816,N,3345.5079,E,0.00,,050120,,,A*41
$GPGGA,112854.000,6735.9816,N,3345.5079,E,1,0,,,M,,M,,*42
$GPRMC,112854.000,A,6735.9816,N,3345.5079,E,0.00,,050120,,,A*46
$GPGGA,112855.000,6735.9816,N,3345.5079,E,1,0,,,M,,M,,*43
$GPRMC,112855.000,A,6735.9816,N,3345.5079,E,0.00,,050120,,,A*47
$GPGGA,112856.000,6735.9816,N,3345.5079,E,1,0,,,M,,M,,*40
$GPRMC,112856.000,A,6735.9816,N,3345.5079,E,0.00,,050120,,,A*44
$GPGGA,112857.000,6735.9816,N,3345.5079,E,1,0,,,M,,M,,*41
$GPRMC,112857.000,A,6735.9816,N,3345.5079,E,0.00,,050120,,,A*45
$GPGGA,112858.000,6735.9816,N,3345.5079,E,1,0,,,M,,M,,*4E
$GPRMC,112858.000,A,6735.9816,N,3345.5079,E,0.00,,050120,,,A*4A
$GPGGA,112859.000,6735.9816,N,3345.5079,E,1,0,,,M,,M,,*4F
$GPRMC,112859.000,A,6735.9816,N,3345.5079,E,0.00,,050120,,,A*4B
$GPGGA,112900.000,6735.9816,N,3345.5079,E,1,0,,,M,,M,,*42
$GPRMC,112900.000,A,6735.9816,N,3345.5079,E,0.00,,050120,,,A*46
$GPGGA,112901.000,6735.9816,N,3345.5079,E,1,0,,,M,,M,,*43
$GPRMC,112901.000,A,6735.9816,N,3345.5079,E,0.00,,050120,,,A*47
$GPGGA,112902.000,6735.9816,N,3345.5079,E,1,0,,,M,,M,,*40
$GPRMC,112902.000,A,6735.9816,N,3345.5079,E,0.00,,050120,,,A*44
$GPGGA,112903.000,6735.9816,N,3345.5079,E,1,0,,,M,,M,,*41
$GPRMC,112903.000,A,6735.9816,N,3345.5079,E,0.00,,050120,,,A*45
$GPGGA,112904.000,6735.9816,N,3345.5079,E,1,0,,,M,,M,,*46
$GPRMC,112904.000,A,6735.9816,N,3345.5079,E,0.00,,050120,,,A*42
$GPGGA,112905.000,6735.9816,N,3345.5079,E,1,0,,,M,,M,,*47
$GPRMC,112905.000,A,6735.9816,N,3345.5079,E,0.00,,050120,,,A*43
$GPGGA,112906.000,6735.9816,N,3345.5079,E,1,0,,,M,,M,,*44
$GPRMC,112906.000,A,6735.9816,N,3345.5079,E,0.00,,050120,,,A*40
$GPGGA,112907.000,6735.9816,N,3345.5079,E,1,0,,,M,,M,,*45
$GPRMC,112907.000,A,6735.9816,N,3345.5079,E,0.00,,050120,,,A*41
$GPGGA,112908.000,6735.9816,N,3345.5079,E,1,0,,,M,,M,,*4A
$GPRMC,112908.000,A,6735.9816,N,3345.5079,E,0.00,,050120,,,A*4E
$GPGGA,112909.000,6735.9816,N,3345.5079,E,1,0,,,M,,M,,*4B
$GPRMC,112909.000,A,6735.9816,N,3345.5079,E,0.00,,050120,,,A*4F
$GPGGA,112910.000,6735.9816,N,3345.5079,E,1,0,,,M,,M,,*43
$GPRMC,112910.000,A,6735.9816,N,3345.5079,E,0.00,,050120,,,A*47
$GPGGA,112911.000,6735.9816,N,3345.5079,E,1,0,,,M,,M,,*42
$GPRMC,112911.000,A,6735.9816,N,3345.5079,E,0.00,,050120,,,A*46
$GPGGA,112912.000,6735.9816,N,3345.5079,E,1,0,,,M,,M,,*41
$GPRMC,112912.000,A,6735.9816,N,3345.5079,E,0.00,,050120,,,A*45
$GPGGA,112913.000,6735.9816,N,3345.5079,E,1,0,,,M,,M,,*40
$GPRMC,112913.000,A,6735.9816,N,3345.5079,E,0.00,,050120,,,A*44
$GPGGA,112914.000,6735.9816,N,3345.5079,E,1,0,,,M,,M,,*47
$GPRMC,112914.000,A,6735.9816,N,3345.5079,E,0.00,,050120,,,A*43
$GPGGA,112915.000,6735.9816,N,3345.5079,E,1,0,,,M,,M,,*46
$GPRMC,112915.000,A,6735.9816,N,3345.5079,E,0.00,,050120,,,A*42
$GPGGA,112916.000,6735.9816,N,3345.5079,E,1,0,,,M,,M,,*45
$GPRMC,112916.000,A,6735.9816,N,3345.5079,E,0.00,,050120,,,A*41
$GPGGA,112917.000,6735.9816,N,3345.5079,E,1,0,,,M,,M,,*44
$GPRMC,112917.000,A,6735.9816,N,3345.5079,E,0.00,,050120,,,A*40
$GPGGA,112918.000,6735.9816,N,3345.5079,E,1,0,,,M,,M,,*4B
$GPRMC,112918.000,A,6735.9816,N,3345.5079,E,0.00,,050120,,,A*4F
$GPGGA,112919.000,6735.9816,N,3345.5079,E,1,0,,,M,,M,,*4A
$GPRMC,112919.000,A,6735.9816,N,3345.5079,E,0.00,,050120,,,A*4E
$GPGGA,112920.000,6735.9816,N,3345.5079,E,1,0,,,M,,M,,*40
$GPRMC,112920.000,A,6735.9816,N,3345.5079,E,0.00,,050120,,,A*44
$GPGGA,112921.000,6735.9816,N,3345.5079,E,1,0,,,M,,M,,*41
$GPRMC,112921.000,A,6735.9816,N,3345.5079,E,0.00,,050120,,,A*45
$GPGGA,112922.000,6735.9816,N,3345.5079,E,1,0,,,M,,M,,*42
$GPRMC,112922.000,A,6735.9816,N,3345.5079,E,0.00,,050120,,,A*46
$GPGGA,112923.000,6735.9816,N,3345.5079,E,1,0,,,M,,M,,*43
$GPRMC,112923.000,A,6735.9816,N,3345.5079,E,0.00,,050120,,,A*47
$GPGGA,112924.000,6735.9816,N,3345.5079,E,1,0,,,M,,M,,*44
$GPRMC,112924.000,A,6735.9816,N,3345.5079,E,0.00,,050120,,,A*40
$GPGGA,112925.000,6735.9816,N,3345.5079,E,1,0,,,M,,M,,*45
$GPRMC,112925.000,A,6735.9816,N,3345.5079,E,0.00,,050120,,,A*41
$GPGGA,112926.000,6735.9816,N,3345.5079,E,1,0,,,M,,M,,*46
$GPRMC,112926.000,A,6735.9816,N,3345.5079,E,0.00,,050120,,,A*42
$GPGGA,112927.000,6735.9816,N,3345.5079,E,1,0,,,M,,M,,*47
$GPRMC,112927.000,A,6735.9816,N,3345.5079,E,0.00,,050120,,,A*43
$GPGGA,112928.000,6735.9816,N,3345.5079,E,1,0,,,M,,M,,*48
$GPRMC,112928.000,A,6735.9816,N,3345.5079,E,0.00,,050120,,,A*4C
$GPGGA,112929.000,6735.9816,N,3345.5079,E,1,0,,,M,,M,,*49
$GPRMC,112929.000,A,6735.9816,N,3345.5079,E,0.00,,050120,,,A*4D
$GPGGA,112930.000,6735.9816,N,3345.5079,E,1,0,,,M,,M,,*41
$GPRMC,112930.000,A,6735.9816,N,3345.5079,E,0.00,,050120,,,A*45
$GPGGA,112931.000,6735.9816,N,3345.5079,E,1,0,,,M,,M,,*40
$GPRMC,112931.000,A,6735.9816,N,3345.5079,E,0.00,,050120,,,A*44
$GPGGA,112932.000,6735.9816,N,3345.5079,E,1,0,,,M,,M,,*43
$GPRMC,112932.000,A,6735.9816,N,3345.5079,E,0.00,,050120,,,A*47
$GPGGA,112933.000,6735.9816,N,3345.5079,E,1,0,,,M,,M,,*42
$GPRMC,112933.000,A,6735.9816,N,3345.5079,E,0.00,,050120,,,A*46
$GPGGA,112934.000,6735.9816,N,3345.5079,E,1,0,,,M,,M,,*45
$GPRMC,112934.000,A,6735.9816,N,3345.5079,E,0.00,,050120,,,A*41
$GPGGA,112935.000,6735.9816,N,3345.5079,E,1,0,,,M,,M,,*44
$GPRMC,112935.000,A,6735.9816,N,3345.5079,E,0.00,,050120,,,A*40
$GPGGA,112936.000,6735.9816,N,3345.5079,E,1,0,,,M,,M,,*47
$GPRMC,112936.000,A,6735.9816,N,3345.5079,E,0.00,,050120,,,A*43
$GPGGA,112937.000,6735.9816,N,3345.5079,E,1,0,,,M,,M,,*46
$GPRMC,112937.000,A,6735.9816,N,3345.5079,E,0.00,,050120,,,A*42
$GPGGA,112938.000,6735.9816,N,3345.5079,E,1,0,,,M,,M,,*49
$GPRMC,112938.000,A,6735.9816,N,3345.5079,E,0.00,,050120,,,A*4D
$GPGGA,112939.000,6735.9816,N,3345.5079,E,1,0,,,M,,M,,*48
$GPRMC,112939.000,A,6735.9816,N,3345.5079,E,0.00,,050120,,,A*4C
$GPGGA,112940.000,6735.9816,N,3345.5079,E,1,0,,,M,,M,,*46
$GPRMC,112940.000,A,6735.9816,N,3345.5079,E,0.00,,050120,,,A*42
$GPGGA,112941.000,6735.9816,N,3345.5079,E,1,0,,,M,,M,,*47
$GPRMC,112941.000,A,6735.9816,N,3345.5079,E,0.00,,050120,,,A*43
$GPGGA,112942.000,6735.9816,N,3345.5079,E,1,0,,,M,,M,,*44
$GPRMC,112942.000,A,6735.9816,N,3345.5079,E,0.00,,050120,,,A*40
$GPGGA,112943.000,6735.9816,N,3345.5079,E,1,0,,,M,,M,,*45
$GPRMC,112943.000,A,6735.9816,N,3345.5079,E,0.00,,050120,,,A*41
$GPGGA,112944.000,6735.9816,N,3345.5079,E,1,0,,,M,,M,,*42
$GPRMC,112944.000,A,6735.9816,N,3345.5079,E,0.00,,050120,,,A*46
$GPGGA,112945.000,6735.9816,N,3345.5079,E,1,0,,,M,,M,,*43
$GPRMC,112945.000,A,6735.9816,N,3345.5079,E,0.00,,050120,,,A*47
$GPGGA,112946.000,6735.9816,N,3345.5079,E,1,0,,,M,,M,,*40
$GPRMC,112946.000,A,6735.9816,N,3345.5079,E,0.00,,050120,,,A*44
$GPGGA,112947.000,6735.9816,N,3345.5079,E,1,0,,,M,,M,,*41
$GPRMC,112947.000,A,6735.9816,N,3345.5079,E,0.00,,050120,,,A*45
$GPGGA,112948.000,6735.9816,N,3345.5079,E,1,0,,,M,,M,,*4E
$GPRMC,112948.000,A,6735.9816,N,3345.5079,E,0.00,,050120,,,A*4A
$GPGGA,112949.000,6735.9816,N,3345.5079,E,1,0,,,M,,M,,*4F
$GPRMC,112949.000,A,6735.9816,N,3345.5079,E,0.00,,050120,,,A*4B
$GPGGA,112950.000,6735.9816,N,3345.5079,E,1,0,,,M,,M,,*47
$GPRMC,112950.000,A,6735.9816,N,3345.5079,E,0.00,,050120,,,A*43
$GPGGA,112951.000,6735.9816,N,3345.5079,E,1,0,,,M,,M,,*46
$GPRMC,112951.000,A,6735.9816,N,3345.5079,E,0.00,,050120,,,A*42
$GPGGA,112952.000,6735.9816,N,3345.5079,E,1,0,,,M,,M,,*45
$GPRMC,112952.000,A,6735.9816,N,3345.5079,E,0.00,,050120,,,A*41
$GPGGA,112953.000,6735.9816,N,3345.5079,E,1,0,,,M,,M,,*44
$GPRMC,112953.000,A,6735.9816,N,3345.5079,E,0.00,,050120,,,A*40
$GPGGA,112954.000,6735.9816,N,3345.5079,E,1,0,,,M,,M,,*43
$GPRMC,112954.000,A,6735.9816,N,3345.5079,E,0.00,,050120,,,A*47
$GPGGA,112955.000,6735.9816,N,3345.5079,E,1,0,,,M,,M,,*42
$GPRMC,112955.000,A,6735.9816,N,3345.5079,E,0.00,,050120,,,A*46
$GPGGA,112956.000,6735.9816,N,3345.5079,E,1,0,,,M,,M,,*41
$GPRMC,112956.000,A,6735.9816,N,3345.5079,E,0.00,,050120,,,A*45
$GPGGA,112957.000,6735.9816,N,3345.5079,E,1,0,,,M,,M,,*40
$GPRMC,112957.000,A,6735.9816,N,3345.5079,E,0.00,,050120,,,A*44
$GPGGA,112958.000,6735.9816,N,3345.5059,E,1,0,,,M,,M,,*4D
$GPRMC,112958.000,A,6735.9816,N,3345.5059,E,3.28,,050120,,,A*40
$GPGGA,112959.000,6735.9817,N,3345.5040,E,1,0,,,M,,M,,*45
$GPRMC,112959.000,A,6735.9817,N,3345.5040,E,3.96,,050120,,,A*4D
$GPGGA,113000.000,6735.9819,N,3345.5022,E,1,0,,,M,,M,,*4B
$GPRMC,113000.000,A,6735.9819,N,3345.5022,E,3.89,,050120,,,A*4D
$GPGGA,113001.000,6735.9824,N,3345.5003,E,1,0,,,M,,M,,*47
$GPRMC,113001.000,A,6735.9824,N,3345.5003,E,2.98,,050120,,,A*40
$GPGGA,113002.000,6735.9826,N,3345.4993,E,1,0,,,M,,M,,*47
$GPRMC,113002.000,A,6735.9826,N,3345.4993,E,1.43,,050120,,,A*45
$GPGGA,113003.000,6735.9824,N,3345.5001,E,1,0,,,M,,M,,*47
$GPRMC,113003.000,A,6735.9824,N,3345.5001,E,0.92,,050120,,,A*48
$GPGGA,113004.000,6735.9825,N,3345.5004,E,1,0,,,M,,M,,*44
$GPRMC,113004.000,A,6735.9825,N,3345.5004,E,0.63,,050120,,,A*45
$GPGGA,113005.000,6735.9825,N,3345.5007,E,1,0,,,M,,M,,*46
$GPRMC,113005.000,A,6735.9825,N,3345.5007,E,1.02,,050120,,,A*41
$GPGGA,113006.000,6735.9825,N,3345.5006,E,1,0,,,M,,M,,*44
$GPRMC,113006.000,A,6735.9825,N,3345.5006,E,0.96,,050120,,,A*4F
$GPGGA,113007.000,6735.9824,N,3345.5011,E,1,0,,,M,,M,,*42
$GPRMC,113007.000,A,6735.9824,N,3345.5011,E,0.39,,050120,,,A*4C
$GPGGA,113008.000,6735.9824,N,3345.5013,E,1,0,,,M,,M,,*4F
$GPRMC,113008.000,A,6735.9824,N,3345.5013,E,0.46,,050120,,,A*49
$GPGGA,113009.000,6735.9826,N,3345.5014,E,1,0,,,M,,M,,*4B
$GPRMC,113009.000,A,6735.9826,N,3345.5014,E,1.22,,050120,,,A*4E
$GPGGA,113010.000,6735.9827,N,3345.5010,E,1,0,,,M,,M,,*46
$GPRMC,113010.000,A,6735.9827,N,3345.5010,E,1.21,,050120,,,A*40
$GPGGA,113011.000,6735.9827,N,3345.5005,E,1,0,,,M,,M,,*43
$GPRMC,113011.000,A,6735.9827,N,3345.5005,E,1.47,,050120,,,A*45
$GPGGA,113012.000,6735.9830,N,3345.4998,E,1,0,,,M,,M,,*4A
$GPRMC,113012.000,A,6735.9830,N,3345.4998,E,1.73,,050120,,,A*4B
$GPGGA,113013.000,6735.9830,N,3345.4993,E,1,0,,,M,,M,,*40
$GPRMC,113013.000,A,6735.9830,N,3345.4993,E,1.79,,050120,,,A*4B
$GPGGA,113014.000,6735.9828,N,3345.4991,E,1,0,,,M,,M,,*4C
$GPRMC,113014.000,A,6735.9828,N,3345.4991,E,1.72,,050120,,,A*4C
$GPGGA,113015.000,6735.9826,N,3345.4991,E,1,0,,,M,,M,,*43
$GPRMC,113015.000,A,6735.9826,N,3345.4991,E,1.41,,050120,,,A*43
$GPGGA,113016.000,6735.9825,N,3345.4988,E,1,0,,,M,,M,,*4B
$GPRMC,113016.000,A,6735.9825,N,3345.4988,E,1.13,,050120,,,A*4C
$GPGGA,113017.000,6735.9825,N,3345.4995,E,1,0,,,M,,M,,*46
$GPRMC,113017.000,A,6735.9825,N,3345.4995,E,0.77,,050120,,,A*42
$GPGGA,113018.000,6735.9820,N,3345.5004,E,1,0,,,M,,M,,*4C
$GPRMC,113018.000,A,6735.9820,N,3345.5004,E,0.45,,050120,,,A*49
$GPGGA,113019.000,6735.9819,N,3345.5012,E,1,0,,,M,,M,,*40
$GPRMC,113019.000,A,6735.9819,N,3345.5012,E,0.27,,050120,,,A*41
$GPGGA,113020.000,6735.9818,N,3345.5018,E,1,0,,,M,,M,,*41
$GPRMC,113020.000,A,6735.9818,N,3345.5018,E,0.30,,050120,,,A*46
$GPGGA,113021.000,6735.9817,N,3345.5016,E,1,0,,,M,,M,,*41
$GPRMC,113021.000,A,6735.9817,N,3345.5016,E,0.58,,050120,,,A*48
$GPGGA,113022.000,6735.9817,N,3345.5012,E,1,0,,,M,,M,,*46
$GPRMC,113022.000,A,6735.9817,N,3345.5012,E,1.03,,050120,,,A*40
$GPGGA,113023.000,6735.9817,N,3345.5014,E,1,0,,,M,,M,,*41
$GPRMC,113023.000,A,6735.9817,N,3345.5014,E,1.04,,050120,,,A*40
$GPGGA,113024.000,6735.9817,N,3345.5010,E,1,0,,,M,,M,,*42
$GPRMC,113024.000,A,6735.9817,N,3345.5010,E,0.98,,050120,,,A*47
$GPGGA,113025.000,6735.9816,N,3345.5014,E,1,0,,,M,,M,,*46
$GPRMC,113025.000,A,6735.9816,N,3345.5014,E,0.92,,050120,,,A*49
$GPGGA,113026.000,6735.9816,N,3345.5019,E,1,0,,,M,,M,,*48
$GPRMC,113026.000,A,6735.9816,N,3345.5019,E,0.86,,050120,,,A*42
$GPGGA,113027.000,6735.9815,N,3345.5019,E,1,0,,,M,,M,,*4A
$GPRMC,113027.000,A,6735.9815,N,3345.5019,E,0.93,,050120,,,A*44
$GPGGA,113028.000,6735.9815,N,3345.5018,E,1,0,,,M,,M,,*44
$GPRMC,113028.000,A,6735.9815,N,3345.5018,E,1.19,,050120,,,A*49
$GPGGA,113029.000,6735.9816,N,3345.5012,E,1,0,,,M,,M,,*4C
$GPRMC,113029.000,A,6735.9816,N,3345.5012,E,1.63,,050120,,,A*4C
$GPGGA,113030.000,6735.9817,N,3345.5005,E,1,0,,,M,,M,,*43
$GPRMC,113030.000,A,6735.9817,N,3345.5005,E,2.06,,050120,,,A*43
$GPGGA,113031.000,6735.9819,N,3345.4999,E,1,0,,,M,,M,,*41
$GPRMC,113031.000,A,6735.9819,N,3345.4999,E,2.27,,050120,,,A*42
$GPGGA,113032.000,6735.9812,N,3345.5018,E,1,0,,,M,,M,,*48
$GPRMC,113032.000,A,6735.9812,N,3345.5018,E,2.82,,050120,,,A*44
$GPGGA,113033.000,6735.9810,N,3345.5021,E,1,0,,,M,,M,,*41
$GPRMC,113033.000,A,6735.9810,N,3345.5021,E,3.12,,050120,,,A*45
$GPGGA,113034.000,6735.9811,N,3345.5008,E,1,0,,,M,,M,,*4C
$GPRMC,113034.000,A,6735.9811,N,3345.5008,E,2.53,,050120,,,A*4C
$GPGGA,113035.000,6735.9812,N,3345.4990,E,1,0,,,M,,M,,*47
$GPRMC,113035.000,A,6735.9812,N,3345.4990,E,0.77,,050120,,,A*43
$GPGGA,113036.000,6735.9814,N,3345.4976,E,1,0,,,M,,M,,*4A
$GPRMC,113036.000,A,6735.9814,N,3345.4976,E,1.30,,050120,,,A*4C
$GPGGA,113037.000,6735.9818,N,3345.4963,E,1,0,,,M,,M,,*43
$GPRMC,113037.000,A,6735.9818,N,3345.4963,E,1.75,,050120,,,A*44
$GPGGA,113038.000,6735.9819,N,3345.4969,E,1,0,,,M,,M,,*47
$GPRMC,113038.000,A,6735.9819,N,3345.4969,E,1.34,,050120,,,A*45
$GPGGA,113039.000,6735.9821,N,3345.4960,E,1,0,,,M,,M,,*44
$GPRMC,113039.000,A,6735.9821,N,3345.4960,E,1.27,,050120,,,A*44
$GPGGA,113040.000,6735.9822,N,3345.4957,E,1,0,,,M,,M,,*4D
$GPRMC,113040.000,A,6735.9822,N,3345.4957,E,0.76,,050120,,,A*48
$GPGGA,113041.000,6735.9823,N,3345.4961,E,1,0,,,M,,M,,*48
$GPRMC,113041.000,A,6735.9823,N,3345.4961,E,0.36,,050120,,,A*49
$GPGGA,113042.000,6735.9824,N,3345.4964,E,1,0,,,M,,M,,*49
$GPRMC,113042.000,A,6735.9824,N,3345.4964,E,0.31,,050120,,,A*4F
$GPGGA,113043.000,6735.9825,N,3345.4969,E,1,0,,,M,,M,,*44
$GPRMC,113043.000,A,6735.9825,N,3345.4969,E,0.29,,050120,,,A*4B
$GPGGA,113044.000,6735.9826,N,3345.4973,E,1,0,,,M,,M,,*4B
$GPRMC,113044.000,A,6735.9826,N,3345.4973,E,0.23,,050120,,,A*4E
$GPGGA,113045.000,6735.9826,N,3345.4975,E,1,0,,,M,,M,,*4C
$GPRMC,113045.000,A,6735.9826,N,3345.4975,E,0.07,,050120,,,A*4F
$GPGGA,113046.000,6735.9826,N,3345.4975,E,1,0,,,M,,M,,*4F
$GPRMC,113046.000,A,6735.9826,N,3345.4975,E,0.04,,050120,,,A*4F
$GPGGA,113047.000,6735.9826,N,3345.4975,E,1,0,,,M,,M,,*4E
$GPRMC,113047.000,A,6735.9826,N,3345.4975,E,0.06,,050120,,,A*4C
$GPGGA,113048.000,6735.9826,N,3345.4975,E,1,0,,,M,,M,,*41
$GPRMC,113048.000,A,6735.9826,N,3345.4975,E,0.36,,050120,,,A*40
$GPGGA,113049.000,6735.9827,N,3345.4974,E,1,0,,,M,,M,,*40
$GPRMC,113049.000,A,6735.9827,N,3345.4974,E,0.53,,050120,,,A*42
$GPGGA,113050.000,6735.9828,N,3345.4972,E,1,0,,,M,,M,,*41
$GPRMC,113050.000,A,6735.9828,N,3345.4972,E,0.72,,050120,,,A*40
$GPGGA,113051.000,6735.9831,N,3345.4964,E,1,0,,,M,,M,,*4F
$GPRMC,113051.000,A,6735.9831,N,3345.4964,E,0.73,,050120,,,A*4F
$GPGGA,113052.000,6735.9832,N,3345.4963,E,1,0,,,M,,M,,*48
$GPRMC,113052.000,A,6735.9832,N,3345.4963,E,0.70,,050120,,,A*4B
$GPGGA,113053.000,6735.9833,N,3345.4963,E,1,0,,,M,,M,,*48
$GPRMC,113053.000,A,6735.9833,N,3345.4963,E,0.71,,050120,,,A*4A
$GPGGA,113054.000,6735.9835,N,3345.4953,E,1,0,,,M,,M,,*4A
$GPRMC,113054.000,A,6735.9835,N,3345.4953,E,0.71,,050120,,,A*48
$GPGGA,113055.000,6735.9838,N,3345.4947,E,1,0,,,M,,M,,*43
$GPRMC,113055.000,A,6735.9838,N,3345.4947,E,0.92,,050120,,,A*4C
$GPGGA,113056.000,6735.9840,N,3345.4943,E,1,0,,,M,,M,,*4B
$GPRMC,113056.000,A,6735.9840,N,3345.4943,E,0.88,,050120,,,A*4F
$GPGGA,113057.000,6735.9841,N,3345.4944,E,1,0,,,M,,M,,*4C
$GPRMC,113057.000,A,6735.9841,N,3345.4944,E,0.50,,050120,,,A*4D
$GPGGA,113058.000,6735.9842,N,3345.4943,E,1,0,,,M,,M,,*47
$GPRMC,113058.000,A,6735.9842,N,3345.4943,E,0.46,,050120,,,A*41
$GPGGA,113059.000,6735.9843,N,3345.4941,E,1,0,,,M,,M,,*45
$GPRMC,113059.000,A,6735.9843,N,3345.4941,E,0.41,,050120,,,A*44
$GPGGA,113100.000,6735.9842,N,3345.4942,E,1,0,,,M,,M,,*4A
$GPRMC,113100.000,A,6735.9842,N,3345.4942,E,0.12,,050120,,,A*4D
$GPGGA,113101.000,6735.9843,N,3345.4942,E,1,0,,,M,,M,,*4A
$GPRMC,113101.000,A,6735.9843,N,3345.4942,E,0.13,,050120,,,A*4C
$GPGGA,113102.000,6735.9843,N,3345.4941,E,1,0,,,M,,M,,*4A
$GPRMC,113102.000,A,6735.9843,N,3345.4941,E,0.03,,050120,,,A*4D
$GPGGA,113103.000,6735.9843,N,3345.4941,E,1,0,,,M,,M,,*4B
$GPRMC,113103.000,A,6735.9843,N,3345.4941,E,0.08,,050120,,,A*47
$GPGGA,113104.000,6735.9843,N,3345.4941,E,1,0,,,M,,M,,*4C
$GPRMC,113104.000,A,6735.9843,N,3345.4941,E,0.07,,050120,,,A*4F
$GPGGA,113105.000,6735.9843,N,3345.4941,E,1,0,,,M,,M,,*4D
$GPRMC,113105.000,A,6735.9843,N,3345.4941,E,0.21,,050120,,,A*4A
$GPGGA,113106.000,6735.9843,N,3345.4940,E,1,0,,,M,,M,,*4F
$GPRMC,113106.000,A,6735.9843,N,3345.4940,E,0.52,,050120,,,A*4C
$GPGGA,113107.000,6735.9843,N,3345.4936,E,1,0,,,M,,M,,*4F
$GPRMC,113107.000,A,6735.9843,N,3345.4936,E,1.10,,050120,,,A*4B
$GPGGA,113108.000,6735.9844,N,3345.4925,E,1,0,,,M,,M,,*45
$GPRMC,113108.000,A,6735.9844,N,3345.4925,E,1.80,,050120,,,A*48
$GPGGA,113109.000,6735.9846,N,3345.4910,E,1,0,,,M,,M,,*40
$GPRMC,113109.000,A,6735.9846,N,3345.4910,E,2.34,,050120,,,A*41
$GPGGA,113110.000,6735.9850,N,3345.4895,E,1,0,,,M,,M,,*43
$GPRMC,113110.000,A,6735.9850,N,3345.4895,E,2.79,,050120,,,A*4B
$GPGGA,113111.000,6735.9853,N,3345.4861,E,1,0,,,M,,M,,*4A
$GPRMC,113111.000,A,6735.9853,N,3345.4861,E,3.07,,050120,,,A*4A
$GPGGA,113112.000,6735.9858,N,3345.4836,E,1,0,,,M,,M,,*40
$GPRMC,113112.000,A,6735.9858,N,3345.4836,E,3.02,,050120,,,A*45
$GPGGA,113113.000,6735.9863,N,3345.4822,E,1,0,,,M,,M,,*4C
$GPRMC,113113.000,A,6735.9863,N,3345.4822,E,2.72,,050120,,,A*4F
$GPGGA,113114.000,6735.9865,N,3345.4813,E,1,0,,,M,,M,,*4F
$GPRMC,113114.000,A,6735.9865,N,3345.4813,E,2.92,,050120,,,A*42
$GPGGA,113115.000,6735.9868,N,3345.4799,E,1,0,,,M,,M,,*4E
$GPRMC,113115.000,A,6735.9868,N,3345.4799,E,3.28,,050120,,,A*43
$GPGGA,113116.000,6735.9871,N,3345.4775,E,1,0,,,M,,M,,*47
$GPRMC,113116.000,A,6735.9871,N,3345.4775,E,3.63,,050120,,,A*45
$GPGGA,113117.000,6735.9877,N,3345.4747,E,1,0,,,M,,M,,*41
$GPRMC,113117.000,A,6735.9877,N,3345.4747,E,4.04,,050120,,,A*45
$GPGGA,113118.000,6735.9880,N,3345.4726,E,1,0,,,M,,M,,*41
$GPRMC,113118.000,A,6735.9880,N,3345.4726,E,4.00,,050120,,,A*41
$GPGGA,113119.000,6735.9884,N,3345.4706,E,1,0,,,M,,M,,*46
$GPRMC,113119.000,A,6735.9884,N,3345.4706,E,3.94,,050120,,,A*4C
$GPGGA,113120.000,6735.9889,N,3345.4688,E,1,0,,,M,,M,,*46
$GPRMC,113120.000,A,6735.9889,N,3345.4688,E,3.72,,050120,,,A*44
$GPGGA,113121.000,6735.9894,N,3345.4673,E,1,0,,,M,,M,,*4F
$GPRMC,113121.000,A,6735.9894,N,3345.4673,E,2.67,,050120,,,A*48
$GPGGA,113122.000,6735.9899,N,3345.4665,E,1,0,,,M,,M,,*46
$GPRMC,113122.000,A,6735.9899,N,3345.4665,E,1.82,,050120,,,A*49
$GPGGA,113123.000,6735.9903,N,3345.4659,E,1,0,,,M,,M,,*4A
$GPRMC,113123.000,A,6735.9903,N,3345.4659,E,0.73,,050120,,,A*4A
$GPGGA,113124.000,6735.9906,N,3345.4648,E,1,0,,,M,,M,,*48
$GPRMC,113124.000,A,6735.9906,N,3345.4648,E,0.38,,050120,,,A*47
$GPGGA,113125.000,6735.9907,N,3345.4649,E,1,0,,,M,,M,,*49
$GPRMC,113125.000,A,6735.9907,N,3345.4649,E,0.11,,050120,,,A*4D
$GPGGA,113126.000,6735.9909,N,3345.4647,E,1,0,,,M,,M,,*4A
$GPRMC,113126.000,A,6735.9909,N,3345.4647,E,0.11,,050120,,,A*4E
$GPGGA,113127.000,6735.9910,N,3345.4649,E,1,0,,,M,,M,,*4D
$GPRMC,113127.000,A,6735.9910,N,3345.4649,E,0.13,,050120,,,A*4B
$GPGGA,113128.000,6735.9910,N,3345.4648,E,1,0,,,M,,M,,*43
$GPRMC,113128.000,A,6735.9910,N,3345.4648,E,0.23,,050120,,,A*46
$GPGGA,113129.000,6735.9911,N,3345.4646,E,1,0,,,M,,M,,*4D
$GPRMC,113129.000,A,6735.9911,N,3345.4646,E,0.18,,050120,,,A*40
$GPGGA,113130.000,6735.9911,N,3345.4645,E,1,0,,,M,,M,,*46
$GPRMC,113130.000,A,6735.9911,N,3345.4645,E,0.49,,050120,,,A*4F
$GPGGA,113131.000,6735.9911,N,3345.4642,E,1,0,,,M,,M,,*40
$GPRMC,113131.000,A,6735.9911,N,3345.4642,E,0.96,,050120,,,A*4B
$GPGGA,113132.000,6735.9914,N,3345.4636,E,1,0,,,M,,M,,*45
$GPRMC,113132.000,A,6735.9914,N,3345.4636,E,1.22,,050120,,,A*40
$GPGGA,113133.000,6735.9918,N,3345.4624,E,1,0,,,M,,M,,*4B
$GPRMC,113133.000,A,6735.9918,N,3345.4624,E,1.57,,050120,,,A*4C
$GPGGA,113134.000,6735.9923,N,3345.4602,E,1,0,,,M,,M,,*40
$GPRMC,113134.000,A,6735.9923,N,3345.4602,E,2.12,,050120,,,A*45
$GPGGA,113135.000,6735.9928,N,3345.4580,E,1,0,,,M,,M,,*43
$GPRMC,113135.000,A,6735.9928,N,3345.4580,E,2.67,,050120,,,A*44
$GPGGA,113136.000,6735.9931,N,3345.4553,E,1,0,,,M,,M,,*46
$GPRMC,113136.000,A,6735.9931,N,3345.4553,E,4.88,,050120,,,A*46
$GPGGA,113137.000,6735.9930,N,3345.4507,E,1,0,,,M,,M,,*47
$GPRMC,113137.000,A,6735.9930,N,3345.4507,E,6.22,,050120,,,A*45
$GPGGA,113138.000,6735.9921,N,3345.4454,E,1,0,,,M,,M,,*4F
$GPRMC,113138.000,A,6735.9921,N,3345.4454,E,7.50,,050120,,,A*49
$GPGGA,113139.000,6735.9912,N,3345.4410,E,1,0,,,M,,M,,*4E
$GPRMC,113139.000,A,6735.9912,N,3345.4410,E,7.26,,050120,,,A*49
$GPGGA,113140.000,6735.9894,N,3345.4398,E,1,0,,,M,,M,,*48
$GPRMC,113140.000,A,6735.9894,N,3345.4398,E,8.83,,050120,,,A*4F
$GPGGA,113141.000,6735.9875,N,3345.4407,E,1,0,,,M,,M,,*47
$GPRMC,113141.000,A,6735.9875,N,3345.4407,E,8.76,,050120,,,A*4A
$GPGGA,113142.000,6735.9868,N,3345.4400,E,1,0,,,M,,M,,*4F
$GPRMC,113142.000,A,6735.9868,N,3345.4400,E,7.47,,050120,,,A*4F
$GPGGA,113143.000,6735.9851,N,3345.4395,E,1,0,,,M,,M,,*4F
$GPRMC,113143.000,A,6735.9851,N,3345.4395,E,6.13,,050120,,,A*4F
$GPGGA,113144.000,6735.9836,N,3345.4373,E,1,0,,,M,,M,,*41
$GPRMC,113144.000,A,6735.9836,N,3345.4373,E,4.78,,050120,,,A*4E
$GPGGA,113145.000,6735.9840,N,3345.4334,E,1,0,,,M,,M,,*42
$GPRMC,113145.000,A,6735.9840,N,3345.4334,E,3.87,,050120,,,A*4A
$GPGGA,113146.000,6735.9847,N,3345.4308,E,1,0,,,M,,M,,*49
$GPRMC,113146.000,A,6735.9847,N,3345.4308,E,2.20,,050120,,,A*4D
$GPGGA,113147.000,6735.9856,N,3345.4297,E,1,0,,,M,,M,,*4F
$GPRMC,113147.000,A,6735.9856,N,3345.4297,E,0.12,,050120,,,A*48
$GPGGA,113148.000,6735.9864,N,3345.4297,E,1,0,,,M,,M,,*41
$GPRMC,113148.000,A,6735.9864,N,3345.4297,E,0.09,,050120,,,A*4C
$GPGGA,113149.000,6735.9868,N,3345.4296,E,1,0,,,M,,M,,*4D
$GPRMC,113149.000,A,6735.9868,N,3345.4296,E,0.06,,050120,,,A*4F
$GPGGA,113150.000,6735.9871,N,3345.4297,E,1,0,,,M,,M,,*4C
$GPRMC,113150.000,A,6735.9871,N,3345.4297,E,0.05,,050120,,,A*4D
$GPGGA,113151.000,6735.9872,N,3345.4299,E,1,0,,,M,,M,,*40
$GPRMC,113151.000,A,6735.9872,N,3345.4299,E,0.03,,050120,,,A*47
$GPGGA,113152.000,6735.9873,N,3345.4298,E,1,0,,,M,,M,,*43
$GPRMC,113152.000,A,6735.9873,N,3345.4298,E,0.11,,050120,,,A*47
$GPGGA,113153.000,6735.9873,N,3345.4289,E,1,0,,,M,,M,,*42
$GPRMC,113153.000,A,6735.9873,N,3345.4289,E,0.22,,050120,,,A*46
$GPGGA,113154.000,6735.9867,N,3345.4270,E,1,0,,,M,,M,,*46
$GPRMC,113154.000,A,6735.9867,N,3345.4270,E,0.30,,050120,,,A*41
$GPGGA,113155.000,6735.9861,N,3345.4241,E,1,0,,,M,,M,,*43
$GPRMC,113155.000,A,6735.9861,N,3345.4241,E,4.65,,050120,,,A*40
$GPGGA,113156.000,6735.9859,N,3345.4211,E,1,0,,,M,,M,,*4E
$GPRMC,113156.000,A,6735.9859,N,3345.4211,E,3.95,,050120,,,A*45
$GPGGA,113157.000,6735.9868,N,3345.4186,E,1,0,,,M,,M,,*40
$GPRMC,113157.000,A,6735.9868,N,3345.4186,E,3.98,,050120,,,A*46
$GPGGA,113158.000,6735.9876,N,3345.4168,E,1,0,,,M,,M,,*40
$GPRMC,113158.000,A,6735.9876,N,3345.4168,E,4.33,,050120,,,A*40
$GPGGA,113159.000,6735.9884,N,3345.4149,E,1,0,,,M,,M,,*4F
$GPRMC,113159.000,A,6735.9884,N,3345.4149,E,3.77,,050120,,,A*48
$GPGGA,113200.000,6735.9892,N,3345.4129,E,1,0,,,M,,M,,*41
$GPRMC,113200.000,A,6735.9892,N,3345.4129,E,3.82,,050120,,,A*4C
$GPGGA,113201.000,6735.9900,N,3345.4109,E,1,0,,,M,,M,,*48
$GPRMC,113201.000,A,6735.9900,N,3345.4109,E,4.36,,050120,,,A*4D
$GPGGA,113202.000,6735.9908,N,3345.4090,E,1,0,,,M,,M,,*42
$GPRMC,113202.000,A,6735.9908,N,3345.4090,E,3.49,,050120,,,A*48
$GPGGA,113203.000,6735.9919,N,3345.4082,E,1,0,,,M,,M,,*40
$GPRMC,113203.000,A,6735.9919,N,3345.4082,E,3.05,,050120,,,A*42
$GPGGA,113204.000,6735.9926,N,3345.4075,E,1,0,,,M,,M,,*43
$GPRMC,113204.000,A,6735.9926,N,3345.4075,E,2.72,,050120,,,A*40
$GPGGA,113205.000,6735.9932,N,3345.4069,E,1,0,,,M,,M,,*4A
$GPRMC,113205.000,A,6735.9932,N,3345.4069,E,2.68,,050120,,,A*42
$GPGGA,113206.000,6735.9937,N,3345.4062,E,1,0,,,M,,M,,*47
$GPRMC,113206.000,A,6735.9937,N,3345.4062,E,2.26,,050120,,,A*45
$GPGGA,113207.000,6735.9942,N,3345.4053,E,1,0,,,M,,M,,*46
$GPRMC,113207.000,A,6735.9942,N,3345.4053,E,2.53,,050120,,,A*46
$GPGGA,113208.000,6735.9949,N,3345.4044,E,1,0,,,M,,M,,*44
$GPRMC,113208.000,A,6735.9949,N,3345.4044,E,2.46,,050120,,,A*40
$GPGGA,113209.000,6735.9954,N,3345.4033,E,1,0,,,M,,M,,*49
$GPRMC,113209.000,A,6735.9954,N,3345.4033,E,2.17,,050120,,,A*49
$GPGGA,113210.000,6735.9960,N,3345.4022,E,1,0,,,M,,M,,*46
$GPRMC,113210.000,A,6735.9960,N,3345.4022,E,2.54,,050120,,,A*41
$GPGGA,113211.000,6735.9965,N,3345.4013,E,1,0,,,M,,M,,*40
$GPRMC,113211.000,A,6735.9965,N,3345.4013,E,2.90,,050120,,,A*4F
$GPGGA,113212.000,6735.9973,N,3345.4002,E,1,0,,,M,,M,,*44
$GPRMC,113212.000,A,6735.9973,N,3345.4002,E,3.57,,050120,,,A*41
$GPGGA,113213.000,6735.9977,N,3345.3987,E,1,0,,,M,,M,,*42
$GPRMC,113213.000,A,6735.9977,N,3345.3987,E,3.77,,050120,,,A*45
$GPGGA,113214.000,6735.9987,N,3345.3965,E,1,0,,,M,,M,,*46
$GPRMC,113214.000,A,6735.9987,N,3345.3965,E,4.28,,050120,,,A*4C
$GPGGA,113215.000,6735.9997,N,3345.3950,E,1,0,,,M,,M,,*40
$GPRMC,113215.000,A,6735.9997,N,3345.3950,E,4.78,,050120,,,A*4F
$GPGGA,113216.000,6736.0009,N,3345.3934,E,1,0,,,M,,M,,*45
$GPRMC,113216.000,A,6736.0009,N,3345.3934,E,5.16,,050120,,,A*43
$GPGGA,113217.000,6736.0023,N,3345.3911,E,1,0,,,M,,M,,*4B
$GPRMC,113217.000,A,6736.0023,N,3345.3911,E,5.37,,050120,,,A*4E
$GPGGA,113218.000,6736.0036,N,3345.3890,E,1,0,,,M,,M,,*48
$GPRMC,113218.000,A,6736.0036,N,3345.3890,E,5.99,,050120,,,A*49
$GPGGA,113219.000,6736.0052,N,3345.3867,E,1,0,,,M,,M,,*43
$GPRMC,113219.000,A,6736.0052,N,3345.3867,E,6.81,,050120,,,A*48
$GPGGA,113220.000,6736.0071,N,3345.3845,E,1,0,,,M,,M,,*48
$GPRMC,113220.000,A,6736.0071,N,3345.3845,E,6.61,,050120,,,A*4D
$GPGGA,113221.000,6736.0092,N,3345.3822,E,1,0,,,M,,M,,*45
$GPRMC,113221.000,A,6736.0092,N,3345.3822,E,6.56,,050120,,,A*44
$GPGGA,113222.000,6736.0109,N,3345.3799,E,1,0,,,M,,M,,*4A
$GPRMC,113222.000,A,6736.0109,N,3345.3799,E,6.76,,050120,,,A*49
$GPGGA,113223.000,6736.0127,N,3345.3777,E,1,0,,,M,,M,,*47
$GPRMC,113223.000,A,6736.0127,N,3345.3777,E,6.71,,050120,,,A*43
$GPGGA,113224.000,6736.0147,N,3345.3755,E,1,0,,,M,,M,,*46
$GPRMC,113224.000,A,6736.0147,N,3345.3755,E,7.11,,050120,,,A*45
$GPGGA,113225.000,6736.0168,N,3345.3731,E,1,0,,,M,,M,,*48
$GPRMC,113225.000,A,6736.0168,N,3345.3731,E,7.33,,050120,,,A*4B
$GPGGA,113226.000,6736.0187,N,3345.3704,E,1,0,,,M,,M,,*4C
$GPRMC,113226.000,A,6736.0187,N,3345.3704,E,7.83,,050120,,,A*44
$GPGGA,113227.000,6736.0205,N,3345.3677,E,1,0,,,M,,M,,*41
$GPRMC,113227.000,A,6736.0205,N,3345.3677,E,7.26,,050120,,,A*46
$GPGGA,113228.000,6736.0222,N,3345.3649,E,1,0,,,M,,M,,*46
$GPRMC,113228.000,A,6736.0222,N,3345.3649,E,7.26,,050120,,,A*41
$GPGGA,113229.000,6736.0242,N,3345.3617,E,1,0,,,M,,M,,*4A
$GPRMC,113229.000,A,6736.0242,N,3345.3617,E,8.15,,050120,,,A*42
$GPGGA,113230.000,6736.0262,N,3345.3583,E,1,0,,,M,,M,,*4E
$GPRMC,113230.000,A,6736.0262,N,3345.3583,E,8.66,,050120,,,A*42
$GPGGA,113231.000,6736.0282,N,3345.3557,E,1,0,,,M,,M,,*48
$GPRMC,113231.000,A,6736.0282,N,3345.3557,E,7.76,,050120,,,A*4A
$GPGGA,113232.000,6736.0301,N,3345.3540,E,1,0,,,M,,M,,*47
$GPRMC,113232.000,A,6736.0301,N,3345.3540,E,6.86,,050120,,,A*4B
$GPGGA,113233.000,6736.0318,N,3345.3519,E,1,0,,,M,,M,,*42
$GPRMC,113233.000,A,6736.0318,N,3345.3519,E,7.04,,050120,,,A*45
$GPGGA,113234.000,6736.0335,N,3345.3488,E,1,0,,,M,,M,,*43
$GPRMC,113234.000,A,6736.0335,N,3345.3488,E,7.98,,050120,,,A*41
$GPGGA,113235.000,6736.0353,N,3345.3441,E,1,0,,,M,,M,,*47
$GPRMC,113235.000,A,6736.0353,N,3345.3441,E,9.40,,050120,,,A*4E
$GPGGA,113236.000,6736.0363,N,3345.3380,E,1,0,,,M,,M,,*4D
$GPRMC,113236.000,A,6736.0363,N,3345.3380,E,9.34,,050120,,,A*47
$GPGGA,113237.000,6736.0356,N,3345.3310,E,1,0,,,M,,M,,*43
$GPRMC,113237.000,A,6736.0356,N,3345.3310,E,10.35,,050120,,,A*70
$GPGGA,113238.000,6736.0331,N,3345.3241,E,1,0,,,M,,M,,*48
$GPRMC,113238.000,A,6736.0331,N,3345.3241,E,13.06,,050120,,,A*78
$GPGGA,113239.000,6736.0299,N,3345.3169,E,1,0,,,M,,M,,*43
$GPRMC,113239.000,A,6736.0299,N,3345.3169,E,15.18,,050120,,,A*7A
$GPGGA,113240.000,6736.0270,N,3345.3082,E,1,0,,,M,,M,,*4E
$GPRMC,113240.000,A,6736.0270,N,3345.3082,E,15.94,,050120,,,A*73
$GPGGA,113241.000,6736.0242,N,3345.2982,E,1,0,,,M,,M,,*46
$GPRMC,113241.000,A,6736.0242,N,3345.2982,E,16.37,,050120,,,A*71
$GPGGA,113242.000,6736.0212,N,3345.2900,E,1,0,,,M,,M,,*4A
$GPRMC,113242.000,A,6736.0212,N,3345.2900,E,14.04,,050120,,,A*7F
$GPGGA,113243.000,6736.0188,N,3345.2845,E,1,0,,,M,,M,,*4B
$GPRMC,113243.000,A,6736.0188,N,3345.2845,E,11.11,,050120,,,A*7F
$GPGGA,113244.000,6736.0171,N,3345.2784,E,1,0,,,M,,M,,*48
$GPRMC,113244.000,A,6736.0171,N,3345.2784,E,9.74,,050120,,,A*46
$GPGGA,113245.000,6736.0170,N,3345.2708,E,1,0,,,M,,M,,*4C
$GPRMC,113245.000,A,6736.0170,N,3345.2708,E,11.45,,050120,,,A*79
$GPGGA,113246.000,6736.0174,N,3345.2611,E,1,0,,,M,,M,,*42
$GPRMC,113246.000,A,6736.0174,N,3345.2611,E,14.27,,050120,,,A*76
$GPGGA,113247.000,6736.0167,N,3345.2498,E,1,0,,,M,,M,,*42
$GPRMC,113247.000,A,6736.0167,N,3345.2498,E,15.94,,050120,,,A*7F
$GPGGA,113248.000,6736.0143,N,3345.2392,E,1,0,,,M,,M,,*46
$GPRMC,113248.000,A,6736.0143,N,3345.2392,E,17.51,,050120,,,A*70
$GPGGA,113249.000,6736.0106,N,3345.2301,E,1,0,,,M,,M,,*4C
$GPRMC,113249.000,A,6736.0106,N,3345.2301,E,18.77,,050120,,,A*71
$GPGGA,113250.000,6736.0063,N,3345.2203,E,1,0,,,M,,M,,*45
$GPRMC,113250.000,A,6736.0063,N,3345.2203,E,20.28,,050120,,,A*79
$GPGGA,113251.000,6736.0021,N,3345.2100,E,1,0,,,M,,M,,*42
$GPRMC,113251.000,A,6736.0021,N,3345.2100,E,20.65,,050120,,,A*77
$GPGGA,113252.000,6735.9972,N,3345.1997,E,1,0,,,M,,M,,*41
$GPRMC,113252.000,A,6735.9972,N,3345.1997,E,22.47,,050120,,,A*76
$GPGGA,113253.000,6735.9922,N,3345.1876,E,1,0,,,M,,M,,*4B
$GPRMC,113253.000,A,6735.9922,N,3345.1876,E,23.72,,050120,,,A*7B
$GPGGA,113254.000,6735.9869,N,3345.1759,E,1,0,,,M,,M,,*40
$GPRMC,113254.000,A,6735.9869,N,3345.1759,E,24.95,,050120,,,A*7E
$GPGGA,113255.000,6735.9810,N,3345.1645,E,1,0,,,M,,M,,*43
$GPRMC,113255.000,A,6735.9810,N,3345.1645,E,26.03,,050120,,,A*70
$GPGGA,113256.000,6735.9754,N,3345.1510,E,1,0,,,M,,M,,*4C
$GPRMC,113256.000,A,6735.9754,N,3345.1510,E,27.58,,050120,,,A*70
$GPGGA,113257.000,6735.9696,N,3345.1371,E,1,0,,,M,,M,,*43
$GPRMC,113257.000,A,6735.9696,N,3345.1371,E,29.19,,050120,,,A*74
$GPGGA,113258.000,6735.9638,N,3345.1214,E,1,0,,,M,,M,,*4A
$GPRMC,113258.000,A,6735.9638,N,3345.1214,E,29.72,,050120,,,A*70
$GPGGA,113259.000,6735.9584,N,3345.1054,E,1,0,,,M,,M,,*49
$GPRMC,113259.000,A,6735.9584,N,3345.1054,E,30.02,,050120,,,A*7C
$GPGGA,113300.000,6735.9533,N,3345.0902,E,1,0,,,M,,M,,*43
$GPRMC,113300.000,A,6735.9533,N,3345.0902,E,28.71,,050120,,,A*7B
$GPGGA,113301.000,6735.9477,N,3345.0737,E,1,0,,,M,,M,,*4B
$GPRMC,113301.000,A,6735.9477,N,3345.0737,E,30.06,,050120,,,A*7A
$GPGGA,113302.000,6735.9415,N,3345.0577,E,1,0,,,M,,M,,*4A
$GPRMC,113302.000,A,6735.9415,N,3345.0577,E,30.60,,050120,,,A*7B
$GPGGA,113303.000,6735.9353,N,3345.0440,E,1,0,,,M,,M,,*4B
$GPRMC,113303.000,A,6735.9353,N,3345.0440,E,27.66,,050120,,,A*7A
$GPGGA,113304.000,6735.9300,N,3345.0292,E,1,0,,,M,,M,,*43
$GPRMC,113304.000,A,6735.9300,N,3345.0292,E,28.90,,050120,,,A*74
$GPGGA,113305.000,6735.9247,N,3345.0148,E,1,0,,,M,,M,,*44
$GPRMC,113305.000,A,6735.9247,N,3345.0148,E,28.58,,050120,,,A*77
$GPGGA,113306.000,6735.9196,N,3345.0014,E,1,0,,,M,,M,,*40
$GPRMC,113306.000,A,6735.9196,N,3345.0014,E,25.33,,050120,,,A*73
$GPGGA,113307.000,6735.9151,N,3344.9894,E,1,0,,,M,,M,,*42
$GPRMC,113307.000,A,6735.9151,N,3344.9894,E,20.75,,050120,,,A*76
$GPGGA,113308.000,6735.9105,N,3344.9795,E,1,0,,,M,,M,,*42
$GPRMC,113308.000,A,6735.9105,N,3344.9795,E,21.90,,050120,,,A*7C
$GPGGA,113309.000,6735.9058,N,3344.9695,E,1,0,,,M,,M,,*4B
$GPRMC,113309.000,A,6735.9058,N,3344.9695,E,22.10,,050120,,,A*7E
$GPGGA,113310.000,6735.9019,N,3344.9572,E,1,0,,,M,,M,,*4C
$GPRMC,113310.000,A,6735.9019,N,3344.9572,E,21.80,,050120,,,A*73
$GPGGA,113311.000,6735.8983,N,3344.9444,E,1,0,,,M,,M,,*42
$GPRMC,113311.000,A,6735.8983,N,3344.9444,E,21.86,,050120,,,A*7B
$GPGGA,113312.000,6735.8942,N,3344.9334,E,1,0,,,M,,M,,*4C
$GPRMC,113312.000,A,6735.8942,N,3344.9334,E,22.52,,050120,,,A*7F
$GPGGA,113313.000,6735.8902,N,3344.9216,E,1,0,,,M,,M,,*48
$GPRMC,113313.000,A,6735.8902,N,3344.9216,E,22.35,,050120,,,A*7A
$GPGGA,113314.000,6735.8865,N,3344.9086,E,1,0,,,M,,M,,*44
$GPRMC,113314.000,A,6735.8865,N,3344.9086,E,22.07,,050120,,,A*77
$GPGGA,113315.000,6735.8824,N,3344.8980,E,1,0,,,M,,M,,*4E
$GPRMC,113315.000,A,6735.8824,N,3344.8980,E,20.48,,050120,,,A*74
$GPGGA,113316.000,6735.8782,N,3344.8889,E,1,0,,,M,,M,,*46
$GPRMC,113316.000,A,6735.8782,N,3344.8889,E,19.58,,050120,,,A*77
$GPGGA,113317.000,6735.8748,N,3344.8778,E,1,0,,,M,,M,,*40
$GPRMC,113317.000,A,6735.8748,N,3344.8778,E,19.89,,050120,,,A*7D
$GPGGA,113318.000,6735.8717,N,3344.8665,E,1,0,,,M,,M,,*48
$GPRMC,113318.000,A,6735.8717,N,3344.8665,E,18.99,,050120,,,A*75
$GPGGA,113319.000,6735.8679,N,3344.8578,E,1,0,,,M,,M,,*4F
$GPRMC,113319.000,A,6735.8679,N,3344.8578,E,17.86,,050120,,,A*73
$GPGGA,113320.000,6735.8638,N,3344.8509,E,1,0,,,M,,M,,*46
$GPRMC,113320.000,A,6735.8638,N,3344.8509,E,17.69,,050120,,,A*7B
$GPGGA,113321.000,6735.8603,N,3344.8430,E,1,0,,,M,,M,,*44
$GPRMC,113321.000,A,6735.8603,N,3344.8430,E,16.75,,050120,,,A*75
$GPGGA,113322.000,6735.8571,N,3344.8348,E,1,0,,,M,,M,,*49
$GPRMC,113322.000,A,6735.8571,N,3344.8348,E,15.48,,050120,,,A*75
$GPGGA,113323.000,6735.8537,N,3344.8286,E,1,0,,,M,,M,,*49
$GPRMC,113323.000,A,6735.8537,N,3344.8286,E,14.81,,050120,,,A*71
$GPGGA,113324.000,6735.8502,N,3344.8229,E,1,0,,,M,,M,,*4D
$GPRMC,113324.000,A,6735.8502,N,3344.8229,E,16.42,,050120,,,A*78
$GPGGA,113325.000,6735.8461,N,3344.8173,E,1,0,,,M,,M,,*44
$GPRMC,113325.000,A,6735.8461,N,3344.8173,E,16.83,,050120,,,A*7C
$GPGGA,113326.000,6735.8422,N,3344.8108,E,1,0,,,M,,M,,*4C
$GPRMC,113326.000,A,6735.8422,N,3344.8108,E,17.47,,050120,,,A*7D
$GPGGA,113327.000,6735.8383,N,3344.8029,E,1,0,,,M,,M,,*43
$GPRMC,113327.000,A,6735.8383,N,3344.8029,E,18.18,,050120,,,A*77
$GPGGA,113328.000,6735.8341,N,3344.7957,E,1,0,,,M,,M,,*4D
$GPRMC,113328.000,A,6735.8341,N,3344.7957,E,18.21,,050120,,,A*73
$GPGGA,113329.000,6735.8296,N,3344.7902,E,1,0,,,M,,M,,*47
$GPRMC,113329.000,A,6735.8296,N,3344.7902,E,18.15,,050120,,,A*7E
$GPGGA,113330.000,6735.8254,N,3344.7835,E,1,0,,,M,,M,,*44
$GPRMC,113330.000,A,6735.8254,N,3344.7835,E,18.46,,050120,,,A*7B
$GPGGA,113331.000,6735.8213,N,3344.7751,E,1,0,,,M,,M,,*4B
$GPRMC,113331.000,A,6735.8213,N,3344.7751,E,19.16,,050120,,,A*70
$GPGGA,113332.000,6735.8169,N,3344.7685,E,1,0,,,M,,M,,*4E
$GPRMC,113332.000,A,6735.8169,N,3344.7685,E,17.75,,050120,,,A*7E
$GPGGA,113333.000,6735.8124,N,3344.7627,E,1,0,,,M,,M,,*4E
$GPRMC,113333.000,A,6735.8124,N,3344.7627,E,18.42,,050120,,,A*75
$GPGGA,113334.000,6735.8078,N,3344.7555,E,1,0,,,M,,M,,*47
$GPRMC,113334.000,A,6735.8078,N,3344.7555,E,19.43,,050120,,,A*7C
$GPGGA,113335.000,6735.8033,N,3344.7479,E,1,0,,,M,,M,,*46
$GPRMC,113335.000,A,6735.8033,N,3344.7479,E,19.36,,050120,,,A*7F
$GPGGA,113336.000,6735.7987,N,3344.7403,E,1,0,,,M,,M,,*41
$GPRMC,113336.000,A,6735.7987,N,3344.7403,E,19.96,,050120,,,A*72
$GPGGA,113337.000,6735.7935,N,3344.7335,E,1,0,,,M,,M,,*4B
$GPRMC,113337.000,A,6735.7935,N,3344.7335,E,21.09,,050120,,,A*75
$GPGGA,113338.000,6735.7878,N,3344.7274,E,1,0,,,M,,M,,*48
$GPRMC,113338.000,A,6735.7878,N,3344.7274,E,22.59,,050120,,,A*70
$GPGGA,113339.000,6735.7822,N,3344.7193,E,1,0,,,M,,M,,*4C
$GPRMC,113339.000,A,6735.7822,N,3344.7193,E,23.30,,050120,,,A*7A
$GPGGA,113340.000,6735.7764,N,3344.7109,E,1,0,,,M,,M,,*4C
$GPRMC,113340.000,A,6735.7764,N,3344.7109,E,23.91,,050120,,,A*71
$GPGGA,113341.000,6735.7705,N,3344.7032,E,1,0,,,M,,M,,*43
$GPRMC,113341.000,A,6735.7705,N,3344.7032,E,24.88,,050120,,,A*71
$GPGGA,113342.000,6735.7646,N,3344.6938,E,1,0,,,M,,M,,*44
$GPRMC,113342.000,A,6735.7646,N,3344.6938,E,24.83,,050120,,,A*7D
$GPGGA,113343.000,6735.7588,N,3344.6850,E,1,0,,,M,,M,,*4B
$GPRMC,113343.000,A,6735.7588,N,3344.6850,E,23.63,,050120,,,A*7B
$GPGGA,113344.000,6735.7536,N,3344.6766,E,1,0,,,M,,M,,*43
$GPRMC,113344.000,A,6735.7536,N,3344.6766,E,21.48,,050120,,,A*78
$GPGGA,113345.000,6735.7487,N,3344.6680,E,1,0,,,M,,M,,*40
$GPRMC,113345.000,A,6735.7487,N,3344.6680,E,20.97,,050120,,,A*78
$GPGGA,113346.000,6735.7438,N,3344.6606,E,1,0,,,M,,M,,*49
$GPRMC,113346.000,A,6735.7438,N,3344.6606,E,19.85,,050120,,,A*78
$GPGGA,113347.000,6735.7391,N,3344.6529,E,1,0,,,M,,M,,*42
$GPRMC,113347.000,A,6735.7391,N,3344.6529,E,20.31,,050120,,,A*76
$GPGGA,113348.000,6735.7343,N,3344.6443,E,1,0,,,M,,M,,*4F
$GPRMC,113348.000,A,6735.7343,N,3344.6443,E,20.47,,050120,,,A*7A
$GPGGA,113349.000,6735.7292,N,3344.6372,E,1,0,,,M,,M,,*46
$GPRMC,113349.000,A,6735.7292,N,3344.6372,E,20.82,,050120,,,A*7A
$GPGGA,113350.000,6735.7243,N,3344.6295,E,1,0,,,M,,M,,*4A
$GPRMC,113350.000,A,6735.7243,N,3344.6295,E,21.00,,050120,,,A*7D
$GPGGA,113351.000,6735.7195,N,3344.6213,E,1,0,,,M,,M,,*4D
$GPRMC,113351.000,A,6735.7195,N,3344.6213,E,20.36,,050120,,,A*7E
$GPGGA,113352.000,6735.7145,N,3344.6147,E,1,0,,,M,,M,,*41
$GPRMC,113352.000,A,6735.7145,N,3344.6147,E,19.99,,050120,,,A*7D
$GPGGA,113353.000,6735.7098,N,3344.6076,E,1,0,,,M,,M,,*42
$GPRMC,113353.000,A,6735.7098,N,3344.6076,E,19.36,,050120,,,A*7B
$GPGGA,113354.000,6735.7053,N,3344.6002,E,1,0,,,M,,M,,*41
$GPRMC,113354.000,A,6735.7053,N,3344.6002,E,19.30,,050120,,,A*7E
$GPGGA,113355.000,6735.7007,N,3344.5939,E,1,0,,,M,,M,,*43
$GPRMC,113355.000,A,6735.7007,N,3344.5939,E,18.67,,050120,,,A*7F
$GPGGA,113356.000,6735.6967,N,3344.5874,E,1,0,,,M,,M,,*46
$GPRMC,113356.000,A,6735.6967,N,3344.5874,E,16.79,,050120,,,A*7B
$GPGGA,113357.000,6735.6937,N,3344.5803,E,1,0,,,M,,M,,*42
$GPRMC,113357.000,A,6735.6937,N,3344.5803,E,14.16,,050120,,,A*74
$GPGGA,113358.000,6735.6909,N,3344.5750,E,1,0,,,M,,M,,*49
$GPRMC,113358.000,A,6735.6909,N,3344.5750,E,12.19,,050120,,,A*76
$GPGGA,113359.000,6735.6877,N,3344.5721,E,1,0,,,M,,M,,*46
$GPRMC,113359.000,A,6735.6877,N,3344.5721,E,12.46,,050120,,,A*73
$GPGGA,113400.000,6735.6841,N,3344.5693,E,1,0,,,M,,M,,*40
$GPRMC,113400.000,A,6735.6841,N,3344.5693,E,14.01,,050120,,,A*70
$GPGGA,113401.000,6735.6807,N,3344.5647,E,1,0,,,M,,M,,*4A
$GPRMC,113401.000,A,6735.6807,N,3344.5647,E,14.43,,050120,,,A*7C
$GPGGA,113402.000,6735.6772,N,3344.5592,E,1,0,,,M,,M,,*4F
$GPRMC,113402.000,A,6735.6772,N,3344.5592,E,14.83,,050120,,,A*75
$GPGGA,113403.000,6735.6736,N,3344.5539,E,1,0,,,M,,M,,*4F
$GPRMC,113403.000,A,6735.6736,N,3344.5539,E,15.71,,050120,,,A*79
$GPGGA,113404.000,6735.6699,N,3344.5481,E,1,0,,,M,,M,,*4E
$GPRMC,113404.000,A,6735.6699,N,3344.5481,E,15.93,,050120,,,A*74
$GPGGA,113405.000,6735.6663,N,3344.5423,E,1,0,,,M,,M,,*42
$GPRMC,113405.000,A,6735.6663,N,3344.5423,E,15.13,,050120,,,A*70
$GPGGA,113406.000,6735.6625,N,3344.5383,E,1,0,,,M,,M,,*4E
$GPRMC,113406.000,A,6735.6625,N,3344.5383,E,14.73,,050120,,,A*7B
$GPGGA,113407.000,6735.6589,N,3344.5340,E,1,0,,,M,,M,,*45
$GPRMC,113407.000,A,6735.6589,N,3344.5340,E,14.67,,050120,,,A*75
$GPGGA,113408.000,6735.6556,N,3344.5279,E,1,0,,,M,,M,,*43
$GPRMC,113408.000,A,6735.6556,N,3344.5279,E,14.50,,050120,,,A*77
$GPGGA,113409.000,6735.6523,N,3344.5222,E,1,0,,,M,,M,,*4E
$GPRMC,113409.000,A,6735.6523,N,3344.5222,E,14.19,,050120,,,A*77
$GPGGA,113410.000,6735.6489,N,3344.5166,E,1,0,,,M,,M,,*44
$GPRMC,113410.000,A,6735.6489,N,3344.5166,E,14.91,,050120,,,A*7D
$GPGGA,113411.000,6735.6454,N,3344.5106,E,1,0,,,M,,M,,*43
$GPRMC,113411.000,A,6735.6454,N,3344.5106,E,14.88,,050120,,,A*72
$GPGGA,113412.000,6735.6419,N,3344.5056,E,1,0,,,M,,M,,*4D
$GPRMC,113412.000,A,6735.6419,N,3344.5056,E,14.38,,050120,,,A*77
$GPGGA,113413.000,6735.6391,N,3344.5028,E,1,0,,,M,,M,,*42
$GPRMC,113413.000,A,6735.6391,N,3344.5028,E,9.40,,050120,,,A*4B
$GPGGA,113414.000,6735.6371,N,3344.5016,E,1,0,,,M,,M,,*46
$GPRMC,113414.000,A,6735.6371,N,3344.5016,E,7.26,,050120,,,A*41
$GPGGA,113415.000,6735.6362,N,3344.5013,E,1,0,,,M,,M,,*40
$GPRMC,113415.000,A,6735.6362,N,3344.5013,E,3.55,,050120,,,A*47
$GPGGA,113416.000,6735.6355,N,3344.5022,E,1,0,,,M,,M,,*45
$GPRMC,113416.000,A,6735.6355,N,3344.5022,E,3.30,,050120,,,A*41
$GPGGA,113417.000,6735.6350,N,3344.5033,E,1,0,,,M,,M,,*41
$GPRMC,113417.000,A,6735.6350,N,3344.5033,E,2.00,,050120,,,A*47
$GPGGA,113418.000,6735.6351,N,3344.5040,E,1,0,,,M,,M,,*4B
$GPRMC,113418.000,A,6735.6351,N,3344.5040,E,0.05,,050120,,,A*4A
$GPGGA,113419.000,6735.6351,N,3344.5044,E,1,0,,,M,,M,,*4E
$GPRMC,113419.000,A,6735.6351,N,3344.5044,E,0.02,,050120,,,A*48
$GPGGA,113420.000,6735.6352,N,3344.5045,E,1,0,,,M,,M,,*46
$GPRMC,113420.000,A,6735.6352,N,3344.5045,E,0.01,,050120,,,A*43
$GPGGA,113421.000,6735.6354,N,3344.5044,E,1,0,,,M,,M,,*40
$GPRMC,113421.000,A,6735.6354,N,3344.5044,E,0.01,,050120,,,A*45
$GPGGA,113422.000,6735.6354,N,3344.5044,E,1,0,,,M,,M,,*43
$GPRMC,113422.000,A,6735.6354,N,3344.5044,E,0.01,,050120,,,A*46
$GPGGA,113423.000,6735.6354,N,3344.5043,E,1,0,,,M,,M,,*45
$GPRMC,113423.000,A,6735.6354,N,3344.5043,E,0.01,,050120,,,A*40
$GPGGA,113424.000,6735.6355,N,3344.5042,E,1,0,,,M,,M,,*42
$GPRMC,113424.000,A,6735.6355,N,3344.5042,E,0.02,,050120,,,A*44
$GPGGA,113425.000,6735.6355,N,3344.5041,E,1,0,,,M,,M,,*40
$GPRMC,113425.000,A,6735.6355,N,3344.5041,E,0.02,,050120,,,A*46
$GPGGA,113426.000,6735.6356,N,3344.5041,E,1,0,,,M,,M,,*40
$GPRMC,113426.000,A,6735.6356,N,3344.5041,E,0.03,,050120,,,A*47
$GPGGA,113427.000,6735.6356,N,3344.5041,E,1,0,,,M,,M,,*41
$GPRMC,113427.000,A,6735.6356,N,3344.5041,E,0.02,,050120,,,A*47
$GPGGA,113428.000,6735.6357,N,3344.5042,E,1,0,,,M,,M,,*4C
$GPRMC,113428.000,A,6735.6357,N,3344.5042,E,0.01,,050120,,,A*49
$GPGGA,113429.000,6735.6357,N,3344.5041,E,1,0,,,M,,M,,*4E
$GPRMC,113429.000,A,6735.6357,N,3344.5041,E,0.01,,050120,,,A*4B
$GPGGA,113430.000,6735.6357,N,3344.5041,E,1,0,,,M,,M,,*46
$GPRMC,113430.000,A,6735.6357,N,3344.5041,E,0.01,,050120,,,A*43
$GPGGA,113431.000,6735.6357,N,3344.5041,E,1,0,,,M,,M,,*47
$GPRMC,113431.000,A,6735.6357,N,3344.5041,E,0.01,,050120,,,A*42
$GPGGA,113432.000,6735.6358,N,3344.5041,E,1,0,,,M,,M,,*4B
$GPRMC,113432.000,A,6735.6358,N,3344.5041,E,0.01,,050120,,,A*4E
$GPGGA,113433.000,6735.6358,N,3344.5041,E,1,0,,,M,,M,,*4A
$GPRMC,113433.000,A,6735.6358,N,3344.5041,E,0.01,,050120,,,A*4F
$GPGGA,113434.000,6735.6358,N,3344.5041,E,1,0,,,M,,M,,*4D
$GPRMC,113434.000,A,6735.6358,N,3344.5041,E,0.01,,050120,,,A*48
$GPGGA,113435.000,6735.6358,N,3344.5041,E,1,0,,,M,,M,,*4C
$GPRMC,113435.000,A,6735.6358,N,3344.5041,E,0.01,,050120,,,A*49
$GPGGA,113436.000,6735.6358,N,3344.5042,E,1,0,,,M,,M,,*4C
$GPRMC,113436.000,A,6735.6358,N,3344.5042,E,0.01,,050120,,,A*49
$GPGGA,113437.000,6735.6358,N,3344.5041,E,1,0,,,M,,M,,*4E
$GPRMC,113437.000,A,6735.6358,N,3344.5041,E,0.01,,050120,,,A*4B
$GPGGA,113438.000,6735.6358,N,3344.5041,E,1,0,,,M,,M,,*41
$GPRMC,113438.000,A,6735.6358,N,3344.5041,E,0.01,,050120,,,A*44
$GPGGA,113439.000,6735.6359,N,3344.5040,E,1,0,,,M,,M,,*40
$GPRMC,113439.000,A,6735.6359,N,3344.5040,E,0.01,,050120,,,A*45
$GPGGA,113440.000,6735.6359,N,3344.5040,E,1,0,,,M,,M,,*4E
$GPRMC,113440.000,A,6735.6359,N,3344.5040,E,0.02,,050120,,,A*48
$GPGGA,113441.000,6735.6358,N,3344.5039,E,1,0,,,M,,M,,*40
$GPRMC,113441.000,A,6735.6358,N,3344.5039,E,0.02,,050120,,,A*46
$GPGGA,113442.000,6735.6358,N,3344.5037,E,1,0,,,M,,M,,*4D
$GPRMC,113442.000,A,6735.6358,N,3344.5037,E,0.18,,050120,,,A*40
$GPGGA,113443.000,6735.6359,N,3344.5036,E,1,0,,,M,,M,,*4C
$GPRMC,113443.000,A,6735.6359,N,3344.5036,E,0.12,,050120,,,A*4B
$GPGGA,113444.000,6735.6359,N,3344.5036,E,1,0,,,M,,M,,*4B
$GPRMC,113444.000,A,6735.6359,N,3344.5036,E,0.14,,050120,,,A*4A
$GPGGA,113445.000,6735.6359,N,3344.5037,E,1,0,,,M,,M,,*4B
$GPRMC,113445.000,A,6735.6359,N,3344.5037,E,0.08,,050120,,,A*47
$GPGGA,113446.000,6735.6359,N,3344.5038,E,1,0,,,M,,M,,*47
$GPRMC,113446.000,A,6735.6359,N,3344.5038,E,0.17,,050120,,,A*45
$GPGGA,113447.000,6735.6359,N,3344.5039,E,1,0,,,M,,M,,*47
$GPRMC,113447.000,A,6735.6359,N,3344.5039,E,0.31,,050120,,,A*41
$GPGGA,113448.000,6735.6358,N,3344.5038,E,1,0,,,M,,M,,*48
$GPRMC,113448.000,A,6735.6358,N,3344.5038,E,0.30,,050120,,,A*4F
$GPGGA,113449.000,6735.6357,N,3344.5038,E,1,0,,,M,,M,,*46
$GPRMC,113449.000,A,6735.6357,N,3344.5038,E,0.16,,050120,,,A*45
$GPGGA,113450.000,6735.6357,N,3344.5037,E,1,0,,,M,,M,,*41
$GPRMC,113450.000,A,6735.6357,N,3344.5037,E,0.06,,050120,,,A*43
$GPGGA,113451.000,6735.6357,N,3344.5038,E,1,0,,,M,,M,,*4F
$GPRMC,113451.000,A,6735.6357,N,3344.5038,E,0.05,,050120,,,A*4E
$GPGGA,113452.000,6735.6357,N,3344.5038,E,1,0,,,M,,M,,*4C
$GPRMC,113452.000,A,6735.6357,N,3344.5038,E,0.11,,050120,,,A*48
$GPGGA,113453.000,6735.6357,N,3344.5039,E,1,0,,,M,,M,,*4C
$GPRMC,113453.000,A,6735.6357,N,3344.5039,E,0.22,,050120,,,A*48
$GPGGA,113454.000,6735.6356,N,3344.5039,E,1,0,,,M,,M,,*4A
$GPRMC,113454.000,A,6735.6356,N,3344.5039,E,0.32,,050120,,,A*4F
$GPGGA,113455.000,6735.6357,N,3344.5037,E,1,0,,,M,,M,,*44
$GPRMC,113455.000,A,6735.6357,N,3344.5037,E,0.24,,050120,,,A*46
$GPGGA,113456.000,6735.6357,N,3344.5039,E,1,0,,,M,,M,,*49
$GPRMC,113456.000,A,6735.6357,N,3344.5039,E,0.16,,050120,,,A*4A
$GPGGA,113457.000,6735.6357,N,3344.5039,E,1,0,,,M,,M,,*48
$GPRMC,113457.000,A,6735.6357,N,3344.5039,E,0.05,,050120,,,A*49
$GPGGA,113458.000,6735.6357,N,3344.5039,E,1,0,,,M,,M,,*47
$GPRMC,113458.000,A,6735.6357,N,3344.5039,E,0.02,,050120,,,A*41
$GPGGA,113459.000,6735.6357,N,3344.5039,E,1,0,,,M,,M,,*46
$GPRMC,113459.000,A,6735.6357,N,3344.5039,E,0.07,,050120,,,A*45
$GPGGA,113500.000,6735.6357,N,3344.5039,E,1,0,,,M,,M,,*4B
$GPRMC,113500.000,A,6735.6357,N,3344.5039,E,0.23,,050120,,,A*4E
